[
  {
    "lat": "43.8637488",
    "lng": "3.3127021",
    "id": 4852676,
    "name": "MAISON DE PAYS DE L'HERAULT",
    "tagsvalue": "100003",
    "tags": [
      {
        "tag": "100003"
      }
    ],
    "address": "Aire A75 34520 LE CAYLAR",
    "city": "LE CAYLAR",
    "postal": "34"
  },
  {
    "lat": "43.3434753",
    "lng": "3.2120248",
    "id": 4852677,
    "name": "SELVO",
    "tagsvalue": "100004",
    "tags": [
      {
        "tag": "100004"
      }
    ],
    "address": "Halles Centrales 34500 BEZIERS",
    "city": "BEZIERS",
    "postal": "34"
  },
  {
    "lat": "43.7337487",
    "lng": "3.5513989",
    "id": 4852678,
    "name": "LES DELICES DES GARRIGUES",
    "tagsvalue": "100033",
    "tags": [
      {
        "tag": "100033"
      }
    ],
    "address": "9 descente du Portal 34150 SAINT GUILHEM LE DESERT",
    "city": "SAINT GUILHEM LE DESERT",
    "postal": "34"
  },
  {
    "lat": "43.695624",
    "lng": "3.507235",
    "id": 4852679,
    "name": "LA CAVE DE MONTPEYROUX",
    "tagsvalue": "100041",
    "tags": [
      {
        "tag": "100041"
      }
    ],
    "address": "Les Coteaux du Castellas 5 place François Villon 34150 MONTPEYROUX",
    "city": "MONTPEYROUX",
    "postal": "34"
  },
  {
    "lat": "43.756966",
    "lng": "3.09923",
    "id": 4852680,
    "name": "LA BOUTIQUE D'AVENE",
    "tagsvalue": "100064",
    "tags": [
      {
        "tag": "100064"
      }
    ],
    "address": "Le Village 34260 AVENE",
    "city": "AVENE",
    "postal": "34"
  },
  {
    "lat": "43.277826",
    "lng": "3.357528",
    "id": 4852681,
    "name": "AU CAVEAU",
    "tagsvalue": "100314",
    "tags": [
      {
        "tag": "100314"
      }
    ],
    "address": "Le Majoral place du Bicentenaire 34420 PORTIRAGNES",
    "city": "PORTIRAGNES",
    "postal": "34"
  },
  {
    "lat": "43.2963341",
    "lng": "3.4177302",
    "id": 4852682,
    "name": "LES CHAIS DE SAINT PIERRE",
    "tagsvalue": "100357",
    "tags": [
      {
        "tag": "100357"
      }
    ],
    "address": "avenue de la Méditerrannée 34450 VIAS PLAGE",
    "city": "VIAS",
    "postal": "34"
  },
  {
    "lat": "44.662788",
    "lng": "3.046409",
    "id": 4852683,
    "name": "BOULANGERIE CHASSANG BROUSSARD",
    "tagsvalue": "100548",
    "tags": [
      {
        "tag": "100548"
      }
    ],
    "address": "Village 48260 NASBINALS",
    "city": "NASBINALS",
    "postal": "48"
  },
  {
    "lat": "44.4405611",
    "lng": "3.9317788",
    "id": 4852684,
    "name": "BOULANGERIE REGINE ROUX",
    "tagsvalue": "100577",
    "tags": [
      {
        "tag": "100577"
      }
    ],
    "address": "47 place du Bosquet 48800 VILLEFORT",
    "city": "VILLEFORT",
    "postal": "48"
  },
  {
    "lat": "43.9623289",
    "lng": "4.0836749",
    "id": 4852685,
    "name": "DOMAINE DU GRAND chemin",
    "tagsvalue": "100679",
    "tags": [
      {
        "tag": "100679"
      }
    ],
    "address": "rue des Vins 30350 SAVIGNARGUES",
    "city": "SAVIGNARGUES",
    "postal": "30"
  },
  {
    "lat": "43.285728",
    "lng": "3.5100106",
    "id": 4852686,
    "name": "LA CAVE GOURMANDE",
    "tagsvalue": "101007",
    "tags": [
      {
        "tag": "101007"
      }
    ],
    "address": "26 rue de la Gabelle 34300 CAP D'AGDE",
    "city": "MONTPELLIER",
    "postal": "34"
  },
  {
    "lat": "43.4443523",
    "lng": "3.750431",
    "id": 4852687,
    "name": "LA CAVE DES VIGNAUX",
    "tagsvalue": "101069",
    "tags": [
      {
        "tag": "101069"
      }
    ],
    "address": "square de Muscat - rue Olivier de Serres 34110 FRONTIGNAN",
    "city": "FRONTIGNAN",
    "postal": "34"
  },
  {
    "lat": "43.3118748",
    "lng": "3.4166853",
    "id": 4852688,
    "name": "LES CAVES CALMELS",
    "tagsvalue": "101213",
    "tags": [
      {
        "tag": "101213"
      }
    ],
    "address": "16 boulevard de la Liberté 34450 VIAS",
    "city": "VIAS",
    "postal": "34"
  },
  {
    "lat": "43.4270127",
    "lng": "3.3048925",
    "id": 4852689,
    "name": "LA FROMAGERIE MJ",
    "tagsvalue": "101556",
    "tags": [
      {
        "tag": "101556"
      }
    ],
    "address": "3 impasse des Lilas 34290 SERVIAN",
    "city": "BEZIERS",
    "postal": "34"
  },
  {
    "lat": "43.6547782",
    "lng": "3.3030933",
    "id": 4852690,
    "name": "L'EPICERIE LE REPOUNCHOU",
    "tagsvalue": "101563",
    "tags": [
      {
        "tag": "101563"
      }
    ],
    "address": "La place 34800 OCTON",
    "city": "OCTON",
    "postal": "34"
  },
  {
    "lat": "45.815481",
    "lng": "4.888205",
    "id": 4852691,
    "name": "BOUCHERIES ANDRE RILLIEUX",
    "tagsvalue": "101658",
    "tags": [
      {
        "tag": "101658"
      }
    ],
    "address": "2 avenue du Loup Pendu 69140 RILLIEUX LA PAPE",
    "city": "RILLIEUX LA PAPE",
    "postal": "69"
  },
  {
    "lat": "45.7497757",
    "lng": "4.9295426",
    "id": 4852692,
    "name": "BOUCHERIES ANDRE VAULX EN VELIN",
    "tagsvalue": "101661",
    "tags": [
      {
        "tag": "101661"
      }
    ],
    "address": "13 rue des Frères Lumières - Centre Commercial des sept chemins 69120 VAULX EN VELIN",
    "city": "RILLIEUX LA PAPE",
    "postal": "69"
  },
  {
    "lat": "45.8178286",
    "lng": "4.9037174",
    "id": 4852693,
    "name": "BOUCHERIES ANDRE VILLEFRANCHE-SUR-SAONE",
    "tagsvalue": "101662",
    "tags": [
      {
        "tag": "101662"
      }
    ],
    "address": "boulevard Burdeau 69400 VILLEFRANCHE-SUR-SAONE",
    "city": "RILLIEUX LA PAPE",
    "postal": "69"
  },
  {
    "lat": "45.815481",
    "lng": "4.888205",
    "id": 4852694,
    "name": "LES SAYES",
    "tagsvalue": "101664",
    "tags": [
      {
        "tag": "101664"
      }
    ],
    "address": "2 avenue du Loup Pendu 69140 RILLIEUX LA PAPE",
    "city": "RILLIEUX LA PAPE",
    "postal": "69"
  },
  {
    "lat": "43.626614",
    "lng": "3.4339422",
    "id": 4852695,
    "name": "RESTAURANT LE TOURNESOL",
    "tagsvalue": "101746",
    "tags": [
      {
        "tag": "101746"
      }
    ],
    "address": "18 boulevard Gambetta 34800 CLERMONT L'HERAULT",
    "city": "CLERMONT L'HERAULT",
    "postal": "34"
  },
  {
    "lat": "42.7695223",
    "lng": "2.838669",
    "id": 4852696,
    "name": "DOMAINE PIQUEMAL",
    "tagsvalue": "101995",
    "tags": [
      {
        "tag": "101995"
      }
    ],
    "address": "Lieu Dit Della Lo Rec RD 117 - Km 7 66600 ESPIRA DE L'AGLY",
    "city": "ESPIRA DE L'AGLY",
    "postal": "66"
  },
  {
    "lat": "45.7634083",
    "lng": "4.850451",
    "id": 4852697,
    "name": "FROMAGERIE RENEE & RENEE RICHARD",
    "tagsvalue": "102014",
    "tags": [
      {
        "tag": "102014"
      }
    ],
    "address": "102 cours Lafayette 69003 LYON 03",
    "city": "LYON 03",
    "postal": "69"
  },
  {
    "lat": "43.3915619",
    "lng": "3.4168194",
    "id": 4852698,
    "name": "LE ROSE DE BESSAN",
    "tagsvalue": "102105",
    "tags": [
      {
        "tag": "102105"
      }
    ],
    "address": "chemin de la Cave Coopérative 34550 BESSAN",
    "city": "BESSAN",
    "postal": "34"
  },
  {
    "lat": "45.7487983",
    "lng": "5.1863486",
    "id": 4852699,
    "name": "BOUCHERIES ANDRE TIGNIEU",
    "tagsvalue": "102106",
    "tags": [
      {
        "tag": "102106"
      }
    ],
    "address": "26 route de Crémieu 38230 TIGNIEU",
    "city": "RILLIEUX LA PAPE",
    "postal": "69"
  },
  {
    "lat": "43.6514485",
    "lng": "3.6971301",
    "id": 4852700,
    "name": "DOMAINE PUECH MERLE",
    "tagsvalue": "102134",
    "tags": [
      {
        "tag": "102134"
      }
    ],
    "address": "249 avenue d'Argelliers 34570 MONTARNAUD",
    "city": "MONTARNAUD",
    "postal": "34"
  },
  {
    "lat": "46.2598862",
    "lng": "4.7905311",
    "id": 4852701,
    "name": "BOUCHERIES ANDRE VINZELLE",
    "tagsvalue": "102185",
    "tags": [
      {
        "tag": "102185"
      }
    ],
    "address": "RN6 - Pôle Commercial de Vinzelles 71680 VINZELLES",
    "city": "RILLIEUX LA PAPE",
    "postal": "69"
  },
  {
    "lat": "43.368205",
    "lng": "3.2098239",
    "id": 4852702,
    "name": "DOMAINE PRADINES LE BAS",
    "tagsvalue": "102296",
    "tags": [
      {
        "tag": "102296"
      }
    ],
    "address": "route de Corneilhan 34500 BEZIERS",
    "city": "BEZIERS",
    "postal": "34"
  },
  {
    "lat": "44.0557386",
    "lng": "4.8319104",
    "id": 4852703,
    "name": "BOUTIQUE FAMILLE PERRIN",
    "tagsvalue": "102793",
    "tags": [
      {
        "tag": "102793"
      }
    ],
    "address": "place du Portail 84230 CHATEAUNEAU DU PAPE",
    "city": "ORANGE",
    "postal": "84"
  },
  {
    "lat": "43.5271149",
    "lng": "5.451503",
    "id": 4852704,
    "name": "BOUTIQUE FAMILLE PERRIN",
    "tagsvalue": "102793",
    "tags": [
      {
        "tag": "102793"
      }
    ],
    "address": "1 place Forbin Haut du Cours Mirabeau 13100 AIX EN PROVENCE",
    "city": "ORANGE",
    "postal": "84"
  },
  {
    "lat": "41.9374667",
    "lng": "8.7542302",
    "id": 4852705,
    "name": "LE chemin DES VIGNOBLES",
    "tagsvalue": "102894",
    "tags": [
      {
        "tag": "102894"
      }
    ],
    "address": "16 avenue Noël Franchini 20090 AJACCIO",
    "city": "AJACCIO",
    "postal": "20"
  },
  {
    "lat": "48.8435291",
    "lng": "2.2892382",
    "id": 4852706,
    "name": "ETRE GOURMAND",
    "tagsvalue": "102970",
    "tags": [
      {
        "tag": "102970"
      }
    ],
    "address": "58 rue de l'Eglise 75015 PARIS 15",
    "city": "PARIS 15",
    "postal": "75"
  },
  {
    "lat": "41.5810554",
    "lng": "9.2593075",
    "id": 4852707,
    "name": "AU PANIER ROUGE",
    "tagsvalue": "103020",
    "tags": [
      {
        "tag": "103020"
      }
    ],
    "address": "route Arca ldt Caruscinu 20137 PORTO VECCHIO",
    "city": "PORTO VECCHIO",
    "postal": "20"
  },
  {
    "lat": "43.180092",
    "lng": "3.1853743",
    "id": 4852708,
    "name": "L'AME DES VINS ",
    "tagsvalue": "103205",
    "tags": [
      {
        "tag": "103205"
      }
    ],
    "address": "6 Résidence Le Palais de La Méditerranée \n\n11560 SAINT PIERRE LA MER",
    "city": "ST PIERRE LA MER",
    "postal": "11"
  },
  {
    "lat": "44.3654119",
    "lng": "3.4114302",
    "id": 4852709,
    "name": "AUX SAVEURS D'ENIMIE",
    "tagsvalue": "103231",
    "tags": [
      {
        "tag": "103231"
      }
    ],
    "address": "5175 rue du Front du Tarn 48210 STE ENIMIE",
    "city": "STE ENIMIE",
    "postal": "48"
  },
  {
    "lat": "45.5438171",
    "lng": "3.2463187",
    "id": 4852710,
    "name": "SAVEURS D'ICI et D'AILLEURS",
    "tagsvalue": "103370",
    "tags": [
      {
        "tag": "103370"
      }
    ],
    "address": "31 boulevard de la Manlière 63500 ISSOIRE",
    "city": "ISSOIRE",
    "postal": "63"
  },
  {
    "lat": "46.2156597",
    "lng": "5.2440051",
    "id": 4852711,
    "name": "BOUCHERIES ANDRE BOURG EN BRESSE",
    "tagsvalue": "103388",
    "tags": [
      {
        "tag": "103388"
      }
    ],
    "address": "37 avenue de Bad Kreuznach, 01000 Bourg-en-Bresse",
    "city": "RILLIEUX LA PAPE",
    "postal": "69"
  },
  {
    "lat": "45.753427",
    "lng": "3.1278515",
    "id": 4852712,
    "name": "BRULERIE 2.0",
    "tagsvalue": "103496",
    "tags": [
      {
        "tag": "103496"
      }
    ],
    "address": "Centre commercial Plein Sud 12 avenue du Roussillon 63170 AUBIERE",
    "city": "AUBIERE",
    "postal": "63"
  },
  {
    "lat": "45.1058734",
    "lng": "2.8978871",
    "id": 4852713,
    "name": "EIRL CHASSAGNOL PASCAL",
    "tagsvalue": "103603",
    "tags": [
      {
        "tag": "103603"
      }
    ],
    "address": "1 route de Murat 15300 LA CHAPELLE D'ALAGNON",
    "city": "LA CHAPELLE D'ALAGNON",
    "postal": "15"
  },
  {
    "lat": "43.6109517",
    "lng": "3.8655878",
    "id": 4852714,
    "name": "CHEZ LE PECHEUR",
    "tagsvalue": "103720",
    "tags": [
      {
        "tag": "103720"
      }
    ],
    "address": "16 rue Subleyras 34000 MONTPELLIER",
    "city": "MONTPELLIER",
    "postal": "34"
  },
  {
    "lat": "43.7070597",
    "lng": "7.3304014",
    "id": 4852715,
    "name": "BEAULIEU GASTRONOMIE",
    "tagsvalue": "103738",
    "tags": [
      {
        "tag": "103738"
      }
    ],
    "address": "Les Halles de Beaulieu 36 boulevard Marinoni 06310 BEAULIEU SUR MER",
    "city": "BEAULIEU SUR MER",
    "postal": "6"
  },
  {
    "lat": "44.517376",
    "lng": "4.3237363",
    "id": 4852716,
    "name": "MONTEIL",
    "tagsvalue": "103747",
    "tags": [
      {
        "tag": "103747"
      }
    ],
    "address": "Le Berjoux 07110 UZER",
    "city": "UZER",
    "postal": "7"
  },
  {
    "lat": "45.7760631",
    "lng": "3.0678518",
    "id": 4852717,
    "name": "RIVES D'ASIE",
    "tagsvalue": "103772",
    "tags": [
      {
        "tag": "103772"
      }
    ],
    "address": "3 rue Lufbéry 63400 CHAMALIERES",
    "city": "CHAMALIERES",
    "postal": "63"
  },
  {
    "lat": "43.6796304",
    "lng": "3.5886756",
    "id": 4852718,
    "name": "DOMAINE DES CONQUETES",
    "tagsvalue": "103848",
    "tags": [
      {
        "tag": "103848"
      }
    ],
    "address": "220 chemin des Conquêtes 34150 ANIANE",
    "city": "ANIANE",
    "postal": "34"
  },
  {
    "lat": "43.158244",
    "lng": "5.726007",
    "id": 4852719,
    "name": "CHEZ ERICK",
    "tagsvalue": "190002",
    "tags": [
      {
        "tag": "190002"
      }
    ],
    "address": "559 route nationale 83270 SAINT-CYR-SUR-MER",
    "city": "SAINT CYR SUR MER",
    "postal": "83"
  },
  {
    "lat": "44.7147357",
    "lng": "4.6317912",
    "id": 4852720,
    "name": "AUTHENTIQUE PRIMEUR",
    "tagsvalue": "190037",
    "tags": [
      {
        "tag": "190037"
      }
    ],
    "address": "place des Erables 07210 ALISSAS",
    "city": "ST JULIEN EN ST ALBAN",
    "postal": "7"
  },
  {
    "lat": "48.8731537",
    "lng": "2.3304052",
    "id": 4852721,
    "name": "MAGASIN GALERIES LAFAYETT",
    "tagsvalue": "300017",
    "tags": [
      {
        "tag": "300017"
      }
    ],
    "address": "35 boulevard Haussmann \n75009 PARIS",
    "city": "PARIS 09",
    "postal": "75"
  },
  {
    "lat": "43.7468721",
    "lng": "7.4307838",
    "id": 4852722,
    "name": "MARCHE U MONTE CARLO",
    "tagsvalue": "300128",
    "tags": [
      {
        "tag": "300128"
      }
    ],
    "address": "7 boulevard d'Italie Monte-Carlo MONACO",
    "city": "MONACO",
    "postal": "98"
  },
  {
    "lat": "48.8505556",
    "lng": "2.3238889",
    "id": 4852723,
    "name": "LA GRANDE EPICERIE DE PARIS",
    "address": "38 rue de Sèvres 75007 PARIS",
    "city": "PARIS 07",
    "postal": "75"
  },
  {
    "lat": "48.8582638",
    "lng": "2.2759412",
    "id": 4852724,
    "name": "LA GRANDE EPICERIE DE PARIS",
    "address": "80 rue de Passy 75016 PARIS",
    "city": "PARIS 16",
    "postal": "75"
  },
  {
    "lat": "48.8573144",
    "lng": "2.3536461",
    "id": 4852725,
    "name": "BHV MARAIS",
    "address": "52 rue de Rivoli 75004 PARIS",
    "city": "PARIS 03",
    "postal": "75"
  },
  {
    "lat": "48.8280252",
    "lng": "2.1160855",
    "id": 4852726,
    "name": "BHV PARLY 2",
    "address": "Centre Commercial Parly 2, 2 avenue Charles de Gaulle 78158 Le Chesnay",
    "city": "LE CHESNAY",
    "postal": "78"
  },
  {
    "lat": "48.8712314",
    "lng": "2.2317719",
    "id": 4852727,
    "name": "LE GRAND COMPTOIR",
    "tagsvalue": "600905",
    "tags": [
      {
        "tag": "600905"
      }
    ],
    "address": "4 rue Pagès 92150 SURESNES",
    "city": "SURESNES",
    "postal": "92"
  },
  {
    "lat": "42.6894829",
    "lng": "2.920063",
    "id": 4852728,
    "name": "CONFISERIE DU TECH",
    "tagsvalue": "601821",
    "tags": [
      {
        "tag": "601821"
      }
    ],
    "address": "ZA Mas Guérido 66330 CABESTANY",
    "city": "CABESTANY",
    "postal": "66"
  },
  {
    "lat": "43.9753575",
    "lng": "2.9912097",
    "id": 4852729,
    "name": "SOCIETE DES CAVES ROQUEFORT SOCIETE",
    "tagsvalue": "601909",
    "tags": [
      {
        "tag": "601909"
      }
    ],
    "address": "2 avenue François Galtier, 12250 ROQUEFORT-SUR-SOULZON",
    "city": "ROQUEFORT SUR SOULZON",
    "postal": "12"
  },
  {
    "lat": "48.1322396",
    "lng": "-1.6889495",
    "id": 4852730,
    "name": "LE GRAND COMPTOIR RENNES",
    "tagsvalue": "602703",
    "tags": [
      {
        "tag": "602703"
      }
    ],
    "address": "rue René Collin 35000 RENNES",
    "city": "SURESNES",
    "postal": "92"
  },
  {
    "lat": "43.6130499",
    "lng": "6.9770775",
    "id": 4852731,
    "name": "LE GRAND COMPTOIR MOUANS SARTOUX",
    "tagsvalue": "602708",
    "tags": [
      {
        "tag": "602708"
      }
    ],
    "address": "1075 chemin des Gourettes 06370 MOUANS SARTOUX",
    "city": "SURESNES",
    "postal": "92"
  },
  {
    "lat": "47.2276641",
    "lng": "-1.6320016",
    "id": 4852732,
    "name": "LE GRAND COMPTOIR NANTES",
    "tagsvalue": "602716",
    "tags": [
      {
        "tag": "602716"
      }
    ],
    "address": "10 rue des Cochardières 44800 Saint-Herblain",
    "city": "SURESNES",
    "postal": "92"
  },
  {
    "lat": "48.8366742",
    "lng": "2.2393325",
    "id": 4852733,
    "name": "ALICE DELICE BOULOGNE",
    "tagsvalue": "602725",
    "tags": [
      {
        "tag": "602725"
      }
    ],
    "address": "Les Passages de l'hôtel de Ville, centre commercial Les Passages 92100 BOULOGNE-BILLANCOURT",
    "city": "BOULOGNE-BILLANCOURT"
  },
  {
    "lat": "48.890556",
    "lng": "2.2373204",
    "id": 4852734,
    "name": "ALICE DELICE PARIS LA DEFENSE",
    "tagsvalue": "602725",
    "tags": [
      {
        "tag": "602725"
      }
    ],
    "address": "Parvis de La Défense, centre commercial Les 4 Temps, 1e étage en zone Framboise 92092 PARIS",
    "city": "PARIS"
  },
  {
    "lat": "48.833196",
    "lng": "2.386509",
    "id": 4852735,
    "name": "ALICE DELICE BERCY",
    "tagsvalue": "602725",
    "tags": [
      {
        "tag": "602725"
      }
    ],
    "address": "Cour Saint Emilion, chais 7\/9, Bercy Village 75012 PARIS",
    "city": "PARIS"
  },
  {
    "lat": "48.7582215",
    "lng": "2.3864611",
    "id": 4852736,
    "name": "ALICE DELICE THIAIS",
    "tagsvalue": "602725",
    "tags": [
      {
        "tag": "602725"
      }
    ],
    "address": "39 rue de la Résistance, centre commercial Thiais Village 94320 THIAIS",
    "city": "THIAIS"
  },
  {
    "lat": "49.0319027",
    "lng": "2.1032157",
    "id": 4852737,
    "name": "ALICE DELICE ERAGNY",
    "tagsvalue": "602725",
    "tags": [
      {
        "tag": "602725"
      }
    ],
    "address": "1 rue du bas Noyer, centre commercial Art de vivre 95610 ERAGNY",
    "city": "ERAGNY"
  },
  {
    "lat": "48.9912088",
    "lng": "2.5219686",
    "id": 4852738,
    "name": "ALICE DELICE AEROVILLE",
    "tagsvalue": "602725",
    "tags": [
      {
        "tag": "602725"
      }
    ],
    "address": "30 rue des Buissons, centre commercial Aéroville 95700 ROISSY EN FRANCE",
    "city": "ROISSY EN FRANCE"
  },
  {
    "lat": "48.8551924",
    "lng": "2.7798694",
    "id": 4852739,
    "name": "ALICE DELICE VAL EUROPE",
    "tagsvalue": "602725",
    "tags": [
      {
        "tag": "602725"
      }
    ],
    "address": "14 cours du Danube, centre commercial Val d'Europe 77700 SERRIS",
    "city": "SERRIS"
  },
  {
    "lat": "48.958393",
    "lng": "2.860598",
    "id": 4852740,
    "name": "ALICE DELICE MEAUX",
    "tagsvalue": "602725",
    "tags": [
      {
        "tag": "602725"
      }
    ],
    "address": "3 avenue Roland Moréno, centre commercial Les Saisons de Meaux 77124 CHAUCONIN NEUFMONTIERS",
    "city": "CHAUCONIN NEUFMONTIERS"
  },
  {
    "lat": "49.4461111",
    "lng": "1.065",
    "id": 4852741,
    "name": "ALICE DELICE ROUEN",
    "tagsvalue": "602725",
    "tags": [
      {
        "tag": "602725"
      }
    ],
    "address": "boulevard Ferdinand de Lesseps, centre commercial, dock 76 76000 ROUEN",
    "city": "ROUEN"
  },
  {
    "lat": "49.8920514",
    "lng": "2.2998817",
    "id": 4852742,
    "name": "ALICE DELICE AMIENS",
    "tagsvalue": "602725",
    "tags": [
      {
        "tag": "602725"
      }
    ],
    "address": "6-8 rue Ernest Cauvin 80000 AMIENS",
    "city": "AMIENS"
  },
  {
    "lat": "49.2555766",
    "lng": "4.0266648",
    "id": 4852743,
    "name": "ALICE DELICE REIMS",
    "tagsvalue": "602725",
    "tags": [
      {
        "tag": "602725"
      }
    ],
    "address": "53 place Drouet d'Erlon, centre commercial d'Erlon 51100 REIMS",
    "city": "REIMS"
  },
  {
    "lat": "50.357092",
    "lng": "3.5247866",
    "id": 4852744,
    "name": "ALICE DELICE VALENCIENNES",
    "tagsvalue": "602725",
    "tags": [
      {
        "tag": "602725"
      }
    ],
    "address": "12 rue de la Halle, centre commercial cœur de ville place d'armes 59300 VALENCIENNES",
    "city": "VALENCIENNES"
  },
  {
    "lat": "49.1050513",
    "lng": "6.182307",
    "id": 4852745,
    "name": "ALICE DELICE METZ MUSE",
    "tagsvalue": "602725",
    "tags": [
      {
        "tag": "602725"
      }
    ],
    "address": "ZAC du quartier de l'Amphithéâtre, centre commercial Muse 57000 METZ",
    "city": "METZ"
  },
  {
    "lat": "48.6891739",
    "lng": "6.1817604",
    "id": 4852746,
    "name": "ALICE DELICE NANCY",
    "tagsvalue": "602725",
    "tags": [
      {
        "tag": "602725"
      }
    ],
    "address": "place Charles III, rue des Ponts, centre commercial Saint Sébastien 54000 NANCY",
    "city": "NANCY"
  },
  {
    "lat": "50.6372637",
    "lng": "3.0624729",
    "id": 4852747,
    "name": "ALICE DELICE LILLE CENTRE",
    "tagsvalue": "602725",
    "tags": [
      {
        "tag": "602725"
      }
    ],
    "address": "5 rue Esquermoise 59000 LILLE",
    "city": "LILLE"
  },
  {
    "lat": "47.3213654",
    "lng": "5.0397832",
    "id": 4852748,
    "name": "ALICE DELICE DIJON",
    "tagsvalue": "602725",
    "tags": [
      {
        "tag": "602725"
      }
    ],
    "address": "17 rue du Bourg 21000 DIJON",
    "city": "DIJON"
  },
  {
    "lat": "47.213662",
    "lng": "-1.560085",
    "id": 4852749,
    "name": "ALICE DELICE NANTES",
    "tagsvalue": "602725",
    "tags": [
      {
        "tag": "602725"
      }
    ],
    "address": "20 passage Pommeraye 44000 NANTES",
    "city": "NANTES"
  },
  {
    "lat": "45.7611827",
    "lng": "4.8337529",
    "id": 4852750,
    "name": "ALICE DELICE LYON CV",
    "tagsvalue": "602725",
    "tags": [
      {
        "tag": "602725"
      }
    ],
    "address": "80 rue du Président Edouard Herriot 69002 LYON",
    "city": "LYON"
  },
  {
    "lat": "48.5839313",
    "lng": "7.7455935",
    "id": 4852751,
    "name": "ALICE DELICE AUBETTE",
    "tagsvalue": "602725",
    "tags": [
      {
        "tag": "602725"
      }
    ],
    "address": "31 place Kleber, centre commercial Galerie de l'Aubette 67000 STRASBOURG",
    "city": "STRASBOURG"
  },
  {
    "lat": "48.5735791",
    "lng": "7.7579328",
    "id": 4852752,
    "name": "ALICE DELICE RIVETOILE",
    "tagsvalue": "602725",
    "tags": [
      {
        "tag": "602725"
      }
    ],
    "address": "3 place Dauphine, centre commercial Rivétoile 67000 STRASBOURG",
    "city": "STRASBOURG"
  },
  {
    "lat": "46.2277396",
    "lng": "5.9925126",
    "id": 4852753,
    "name": "ALICE DELICE VAL THOIRY",
    "tagsvalue": "602725",
    "tags": [
      {
        "tag": "602725"
      }
    ],
    "address": "1401 rue de la Gare, centre commercial Val Thoiry 01710 THOIRY",
    "city": "THOIRY"
  },
  {
    "lat": "45.9039971",
    "lng": "6.1234135",
    "id": 4852754,
    "name": "ALICE DELICE ANNECY",
    "tagsvalue": "602725",
    "tags": [
      {
        "tag": "602725"
      }
    ],
    "address": "65 boulevard Carnot, centre commercial Courier 74000 ANNECY",
    "city": "ANNECY"
  },
  {
    "lat": "44.8387071",
    "lng": "-0.57554",
    "id": 4852755,
    "name": "ALICE DELICE BORDEAUX",
    "tagsvalue": "602725",
    "tags": [
      {
        "tag": "602725"
      }
    ],
    "address": "20 rue des 3 Conils 33000 BORDEAUX",
    "city": "BORDEAUX"
  },
  {
    "lat": "43.6084583",
    "lng": "3.8847735",
    "id": 4852756,
    "name": "ALICE DELICE MONTPELLIER",
    "tagsvalue": "602725",
    "tags": [
      {
        "tag": "602725"
      }
    ],
    "address": "1 rue des Pertuisanes, centre commercial Polygone 34000 MONTPELLIER",
    "city": "MONTPELLIER"
  },
  {
    "lat": "43.7013964",
    "lng": "7.2679992",
    "id": 4852757,
    "name": "ALICE DELICE NICE",
    "tagsvalue": "602725",
    "tags": [
      {
        "tag": "602725"
      }
    ],
    "address": "30 avenue Jean Médecin, centre commercial Nicétoile 06000 NICE",
    "city": "NICE"
  },
  {
    "lat": "43.6587061",
    "lng": "7.1968979",
    "id": 4852758,
    "name": "ALICE DELICE NICE CAP3000",
    "tagsvalue": "602725",
    "tags": [
      {
        "tag": "602725"
      }
    ],
    "address": "avenue Eugène Donadei, centre commercial Nice 3000 06700 SAINT LAURENT DU VAR",
    "city": "SAINT LAURENT DU VAR"
  },
  {
    "lat": "43.6485102",
    "lng": "1.3687806",
    "id": 4852759,
    "name": "ALINEA BLAGNAC",
    "tagsvalue": "602734",
    "tags": [
      {
        "tag": "602734"
      }
    ],
    "address": "CC du Grand Noble rue Gustave Flaubert 31700 BLAGNAC",
    "city": "BLAGNAC",
    "postal": "31"
  },
  {
    "lat": "43.2946278",
    "lng": "5.5968076",
    "id": 4852760,
    "name": "ALINEA AUBAGNE",
    "tagsvalue": "602735",
    "tags": [
      {
        "tag": "602735"
      }
    ],
    "address": "ZAC Pastre II ZI Les Paluds 13400 AUBAGNE",
    "city": "AUBAGNE",
    "postal": "13"
  },
  {
    "lat": "48.621033",
    "lng": "2.3483561",
    "id": 4852761,
    "name": "ALINEA ST GENEVIEVE",
    "tagsvalue": "602736",
    "tags": [
      {
        "tag": "602736"
      }
    ],
    "address": "28 avenue Croix Blanche 91700 STE GENEVIÈVE DES BOIS",
    "city": "STE GENEVIEVE",
    "postal": "91"
  },
  {
    "lat": "49.003787",
    "lng": "2.174553",
    "id": 4852762,
    "name": "ALINEA HERBLAY",
    "tagsvalue": "602737",
    "tags": [
      {
        "tag": "602737"
      }
    ],
    "address": "2 avenue Louis Armand ZAC Patte d'Oie 95226 HERBLAY",
    "city": "HERBLAY",
    "postal": "95"
  },
  {
    "lat": "48.9474531",
    "lng": "2.6236067",
    "id": 4852763,
    "name": "ALINEA VILLEPARISIS",
    "tagsvalue": "602738",
    "tags": [
      {
        "tag": "602738"
      }
    ],
    "address": "avenue Jean Monnet Parc d'Activité Commerciale de l'Ambresis 77270 VILLEPARISIS",
    "city": "VILLEPARISIS",
    "postal": "77"
  },
  {
    "lat": "49.530191",
    "lng": "0.9651011",
    "id": 4852764,
    "name": "ALINEA ROUEN",
    "tagsvalue": "602739",
    "tags": [
      {
        "tag": "602739"
      }
    ],
    "address": "501 boulevard de Westphalie CC de la Carbonnière 76360 BARENTIN",
    "city": "ROUEN",
    "postal": "76"
  },
  {
    "lat": "48.2918795",
    "lng": "4.1315472",
    "id": 4852765,
    "name": "ALINEA TROYES",
    "tagsvalue": "602740",
    "tags": [
      {
        "tag": "602740"
      }
    ],
    "address": "2 rue Chèvrefeuille 10410 SAINT PARRES AUX TERTRES",
    "city": "TROYES",
    "postal": "10"
  },
  {
    "lat": "43.983891",
    "lng": "4.877876",
    "id": 4852766,
    "name": "ALINEA AVIGNON",
    "tagsvalue": "602741",
    "tags": [
      {
        "tag": "602741"
      }
    ],
    "address": "ZI St Tronquet 84134 LE PONTET",
    "city": "AVIGNON",
    "postal": "84"
  },
  {
    "lat": "49.1914339",
    "lng": "6.1491049",
    "id": 4852767,
    "name": "ALINEA METZ",
    "tagsvalue": "602742",
    "tags": [
      {
        "tag": "602742"
      }
    ],
    "address": "RD 112 E Zone Commerciale Auchan 57280 SEMECOURT",
    "city": "METZ",
    "postal": "57"
  },
  {
    "lat": "45.2182119",
    "lng": "5.6778422",
    "id": 4852768,
    "name": "ALINEA GRENOBLE",
    "tagsvalue": "602743",
    "tags": [
      {
        "tag": "602743"
      }
    ],
    "address": "3 rue des Glairaux 38524 SAINT EGREVE",
    "city": "GRENOBLE",
    "postal": "38"
  },
  {
    "lat": "45.467351",
    "lng": "4.342267",
    "id": 4852769,
    "name": "ALINEA ST ETIENNE",
    "tagsvalue": "602744",
    "tags": [
      {
        "tag": "602744"
      }
    ],
    "address": "ZA de Montravel Centre Commercial 42390 VILLARS",
    "city": "ST ETIENNE",
    "postal": "42"
  },
  {
    "lat": "48.8289732",
    "lng": "1.9714179",
    "id": 4852770,
    "name": "ALINEA PLAISIR",
    "tagsvalue": "602745",
    "tags": [
      {
        "tag": "602745"
      }
    ],
    "address": "CC Alpha Park - ZI du chemin des Eaux - avenue Henri Barbusse 78340 LES CLAYES SOUS BOIS",
    "city": "PLAISIR",
    "postal": "78"
  },
  {
    "lat": "48.6370956",
    "lng": "6.1888532",
    "id": 4852771,
    "name": "ALINEA NANCY",
    "tagsvalue": "602746",
    "tags": [
      {
        "tag": "602746"
      }
    ],
    "address": "2 rue Jacqueline Auriol 54710 FLEVILLE-devant-NANCY",
    "city": "NANCY",
    "postal": "54"
  },
  {
    "lat": "45.8927301",
    "lng": "1.2813995",
    "id": 4852772,
    "name": "ALINEA LIMOGES",
    "tagsvalue": "602749",
    "tags": [
      {
        "tag": "602749"
      }
    ],
    "address": "12 rue Amédée Gordini ZA Nord 87022 LIMOGES",
    "city": "LIMOGES",
    "postal": "87"
  },
  {
    "lat": "48.8825659",
    "lng": "2.4688735",
    "id": 4852773,
    "name": "ALINEA ROSNY SOUS BOIS",
    "tagsvalue": "602750",
    "tags": [
      {
        "tag": "602750"
      }
    ],
    "address": "CC Domus 16 rue de Lisbonne 93562 ROSNY SOUS BOIS",
    "city": "ROSNY SOUS BOIS",
    "postal": "93"
  },
  {
    "lat": "48.1962622",
    "lng": "-1.7248508",
    "id": 4852774,
    "name": "ALINEA RENNES",
    "tagsvalue": "602751",
    "tags": [
      {
        "tag": "602751"
      }
    ],
    "address": "ZAC de Cap Malo Lieu dit de Tiercendre 35520 LA MEZIERE",
    "city": "RENNES",
    "postal": "35"
  },
  {
    "lat": "47.4847453",
    "lng": "-0.6265989",
    "id": 4852775,
    "name": "ALINEA ANGERS",
    "tagsvalue": "602752",
    "tags": [
      {
        "tag": "602752"
      }
    ],
    "address": "CC Atoll Eco Parc du Buisson 49070 BEAUCOUZE",
    "city": "ANGERS",
    "postal": "49"
  },
  {
    "lat": "47.81077",
    "lng": "7.339439",
    "id": 4852776,
    "name": "ALINEA WITTENHEIM",
    "tagsvalue": "602753",
    "tags": [
      {
        "tag": "602753"
      }
    ],
    "address": "Angle de la route de Soultz et de la rue du Nonnenbruch68270 WITTENHEIM",
    "city": "WITTENHEIM",
    "postal": "68"
  },
  {
    "lat": "46.5484774",
    "lng": "0.29686",
    "id": 4852777,
    "name": "ALINEA POITIERS",
    "tagsvalue": "602754",
    "tags": [
      {
        "tag": "602754"
      }
    ],
    "address": "rue de la Saulaie 86240 CROUTELLE",
    "city": "POITIERS",
    "postal": "86"
  },
  {
    "lat": "43.5658863",
    "lng": "1.5128445",
    "id": 4852778,
    "name": "ALINEA ST ORENS",
    "tagsvalue": "602755",
    "tags": [
      {
        "tag": "602755"
      }
    ],
    "address": "277 route de Revel 31031 TOULOUSE",
    "city": "ST ORENS",
    "postal": "31"
  },
  {
    "lat": "48.5818351",
    "lng": "2.6044251",
    "id": 4852779,
    "name": "ALINEA MELUN",
    "tagsvalue": "602756",
    "tags": [
      {
        "tag": "602756"
      }
    ],
    "address": "101 Maisonément ZAC Plaine du Moulin à Vent 77240 CESSON",
    "city": "MELUN",
    "postal": "77"
  },
  {
    "lat": "50.4054161",
    "lng": "2.9776516",
    "id": 4852780,
    "name": "ALINEA NOYELLES GODAULT",
    "tagsvalue": "602758",
    "tags": [
      {
        "tag": "602758"
      }
    ],
    "address": "avenue du Bord des Eaux CC Auchan 62950 NOYELLES GODAULT",
    "city": "NOYELLES GODAULT",
    "postal": "62"
  },
  {
    "lat": "48.7762787",
    "lng": "2.6072713",
    "id": 4852781,
    "name": "ALINEA PONTAULT COMBAULT",
    "tagsvalue": "602759",
    "tags": [
      {
        "tag": "602759"
      }
    ],
    "address": "rue Monthéty CC Carrefour 77340 PONTAULT-COMBAULT",
    "city": "PONTAULT COMBAULT",
    "postal": "77"
  },
  {
    "lat": "44.6118367",
    "lng": "-1.1176553",
    "id": 4852782,
    "name": "ALINEA ARCACHON",
    "tagsvalue": "602760",
    "tags": [
      {
        "tag": "602760"
      }
    ],
    "address": "Espace Commercial Les Océanides avenue du Parc des Expositions 33260 LA TESTE DE BUCH",
    "city": "ARCACHON",
    "postal": "33"
  },
  {
    "lat": "44.836151",
    "lng": "-0.6721162",
    "id": 4852783,
    "name": "ALINEA MERIGNAC",
    "tagsvalue": "602762",
    "tags": [
      {
        "tag": "602762"
      }
    ],
    "address": "19 avenue Jean Perrin 33 700 MERIGNAC",
    "city": "MERIGNAC",
    "postal": "33"
  },
  {
    "lat": "48.0320858",
    "lng": "0.1820227",
    "id": 4852784,
    "name": "ALINEA LE MANS",
    "tagsvalue": "602763",
    "tags": [
      {
        "tag": "602763"
      }
    ],
    "address": "Les Rives de la Sarthe ZAC de l’Ardoise - Parc Manceau 72000 LE MANS",
    "city": "LE MANS",
    "postal": "72"
  },
  {
    "lat": "43.5722837",
    "lng": "3.9416886",
    "id": 4852785,
    "name": "ALINEA MONTPELLIER",
    "tagsvalue": "602764",
    "tags": [
      {
        "tag": "602764"
      }
    ],
    "address": "Zone Commarciale Auchan rue Bir Hakeim 34470 PEROLS",
    "city": "MONTPELLIER",
    "postal": "34"
  },
  {
    "lat": "46.2026657",
    "lng": "6.2716567",
    "id": 4852786,
    "name": "LE GRAND COMPTOIR VILLE LA GRAND",
    "tagsvalue": "602765",
    "tags": [
      {
        "tag": "602765"
      }
    ],
    "address": "14 rue des Biches 74100 Ville-la-Grand",
    "city": "SURESNES",
    "postal": "92"
  },
  {
    "lat": "49.2154905",
    "lng": "4.0606053",
    "id": 4852787,
    "name": "ALINEA REIMS",
    "tagsvalue": "602766",
    "tags": [
      {
        "tag": "602766"
      }
    ],
    "address": "Zone commerciale Les Blancs Monts avenue des Goisses 51350 CORMONTREUIL",
    "city": "REIMS",
    "postal": "51"
  },
  {
    "lat": "43.6038514",
    "lng": "3.9204579",
    "id": 4852788,
    "name": "ALINEA MONPTELLIER ODYSSEUM",
    "tagsvalue": "602771",
    "tags": [
      {
        "tag": "602771"
      }
    ],
    "address": "2 place Lisbonne Centre Commercial Régional Odysseum 34000 MONTPELLIER",
    "city": "MONPTELLIER",
    "postal": "34"
  },
  {
    "lat": "45.7611765",
    "lng": "4.8346994",
    "id": 4852789,
    "name": "VIOLETTE & BERLINGOT",
    "tagsvalue": "101548",
    "tags": [
      {
        "tag": "101548"
      }
    ],
    "address": "52 Passage de l'Argue 69002 LYON 02",
    "city": "LYON 02",
    "postal": "69"
  },
  {
    "lat": "45.7433434",
    "lng": "4.8736271",
    "id": 4852790,
    "name": "CASEUS",
    "tagsvalue": "102472",
    "tags": [
      {
        "tag": "102472"
      }
    ],
    "address": "174 avenue des Frères Lumière 69008 LYON 08",
    "city": "LYON 08",
    "postal": "69"
  },
  {
    "lat": "45.4235087",
    "lng": "4.0655878",
    "id": 4852791,
    "name": "L'ESTELLIER",
    "tagsvalue": "102572",
    "tags": [
      {
        "tag": "102572"
      }
    ],
    "address": "2 place de la République 42380 ST BONNET LE CHATEAU",
    "city": "ST BONNET LE CHATEAU",
    "postal": "42"
  },
  {
    "lat": "45.6067347",
    "lng": "4.0639184",
    "id": 4852792,
    "name": "LA GRENETTE",
    "tagsvalue": "102667",
    "tags": [
      {
        "tag": "102667"
      }
    ],
    "address": "4 rue Grenette 42600 MONTBRISON",
    "city": "MONTBRISON",
    "postal": "42"
  },
  {
    "lat": "46.1580735",
    "lng": "4.1702026",
    "id": 4852793,
    "name": "LE TERROIR D'ANNICK",
    "tagsvalue": "102798",
    "tags": [
      {
        "tag": "102798"
      }
    ],
    "address": "4 rue des Moulins 42190 CHARLIEU",
    "city": "CHARLIEU",
    "postal": "42"
  },
  {
    "lat": "45.7499185",
    "lng": "4.8861489",
    "id": 4852794,
    "name": "EPICERIE SUR COURS",
    "tagsvalue": "102897",
    "tags": [
      {
        "tag": "102897"
      }
    ],
    "address": "72 cours Docteur Long 69003 LYON 03",
    "city": "LYON 03",
    "postal": "69"
  },
  {
    "lat": "45.7635896",
    "lng": "4.8333823",
    "id": 4852795,
    "name": "COOK ME",
    "tagsvalue": "102911",
    "tags": [
      {
        "tag": "102911"
      }
    ],
    "address": "15 rue de Brest 69002 LYON",
    "city": "LYON",
    "postal": "74"
  },
  {
    "lat": "46.0400387",
    "lng": "4.0722349",
    "id": 4852796,
    "name": "EPICERIE FINE TERROIRS",
    "tagsvalue": "102931",
    "tags": [
      {
        "tag": "102931"
      }
    ],
    "address": "17 place Georges Clémenceau 42300 ROANNE",
    "city": "ROANNE",
    "postal": "42"
  },
  {
    "lat": "45.836004",
    "lng": "4.014805",
    "id": 4852797,
    "name": "LA CAVE DE LA MADELEINE",
    "tagsvalue": "103016",
    "tags": [
      {
        "tag": "103016"
      }
    ],
    "address": "551 route de Roanne 42260 ST GERMAIN LAVAL",
    "city": "ST GERMAIN LAVAL",
    "postal": "42"
  },
  {
    "lat": "45.7791105",
    "lng": "4.8321783",
    "id": 4852798,
    "name": "PICHOLINE",
    "tagsvalue": "103064",
    "tags": [
      {
        "tag": "103064"
      }
    ],
    "address": "65 Grande rue de la Croix Rousse 69004 LYON 04",
    "city": "LYON 04",
    "postal": "69"
  },
  {
    "lat": "45.6403954",
    "lng": "4.7336541",
    "id": 4852799,
    "name": "CAVE GUYOT",
    "tagsvalue": "103194",
    "tags": [
      {
        "tag": "103194"
      }
    ],
    "address": "230 route des Fontaines 69440 TALUYERS",
    "city": "TALUYERS",
    "postal": "69"
  },
  {
    "lat": "45.759518",
    "lng": "4.848914",
    "id": 4852800,
    "name": "LA MAISON DES RHUMS",
    "tagsvalue": "103330",
    "tags": [
      {
        "tag": "103330"
      }
    ],
    "address": "78 rue de la Part Dieu 69003 LYON 03",
    "city": "LYON 03",
    "postal": "69"
  },
  {
    "lat": "45.4349582",
    "lng": "4.3906969",
    "id": 4852801,
    "name": "E-PICERIE CORNAND",
    "tagsvalue": "103364",
    "tags": [
      {
        "tag": "103364"
      }
    ],
    "address": "5 rue Pointe Cadet 42100 ST ETIENNE",
    "city": "ST ETIENNE",
    "postal": "42"
  },
  {
    "lat": "45.4340286",
    "lng": "4.3888707",
    "id": 4852802,
    "name": "LE NELSON",
    "tagsvalue": "103368",
    "tags": [
      {
        "tag": "103368"
      }
    ],
    "address": "4 Cours Gambetta 42000 ST ETIENNE",
    "city": "ST ETIENNE",
    "postal": "42"
  },
  {
    "lat": "45.9732845",
    "lng": "4.3317242",
    "id": 4852803,
    "name": "PROUST EPICERIE FINE",
    "tagsvalue": "103386",
    "tags": [
      {
        "tag": "103386"
      }
    ],
    "address": "15 rue de l'Hotel de Ville 69550 AMPLEPUIS",
    "city": "AMPLEPUIS",
    "postal": "69"
  },
  {
    "lat": "45.7474732",
    "lng": "4.7246278",
    "id": 4852804,
    "name": "HISTOIRE DE FROMAGES",
    "tagsvalue": "103409",
    "tags": [
      {
        "tag": "103409"
      }
    ],
    "address": "76 avenue Edouard Millaud 69290 CRAPONNE",
    "city": "CRAPONNE",
    "postal": "69"
  },
  {
    "lat": "45.6753196",
    "lng": "4.7641315",
    "id": 4852805,
    "name": "LA CAVE DES GONES",
    "tagsvalue": "103440",
    "tags": [
      {
        "tag": "103440"
      }
    ],
    "address": "8-10 rue du General de Gaulle 69530 BRIGNAIS",
    "city": "BRIGNAIS",
    "postal": "69"
  },
  {
    "lat": "45.7634083",
    "lng": "4.850451",
    "id": 4852806,
    "name": "CELLERIER HALLES",
    "tagsvalue": "103441",
    "tags": [
      {
        "tag": "103441"
      }
    ],
    "address": "102 Cours Lafayette 69003 LYON 03",
    "city": "LYON 03",
    "postal": "69"
  },
  {
    "lat": "45.877342",
    "lng": "4.476671",
    "id": 4852807,
    "name": "MAISON HUMBERT",
    "tagsvalue": "103488",
    "tags": [
      {
        "tag": "103488"
      }
    ],
    "address": "ZI Le Mortier 69490 SAINT-FORGEUX",
    "city": "ST FORGEUX",
    "postal": "69"
  },
  {
    "lat": "45.6591832",
    "lng": "4.5634399",
    "id": 4852808,
    "name": "MARTINIERE",
    "tagsvalue": "103511",
    "tags": [
      {
        "tag": "103511"
      }
    ],
    "address": "55 grande rue 69850 ST MARTIN EN HAUT",
    "city": "ST MARTIN EN HAUT",
    "postal": "69"
  },
  {
    "lat": "45.7584429",
    "lng": "4.8327595",
    "id": 4852809,
    "name": "VITAL ET J-PAUL PIGNOL",
    "tagsvalue": "103516",
    "tags": [
      {
        "tag": "103516"
      }
    ],
    "address": "8 place Bellecour 69002 LYON 02",
    "city": "LYON 02",
    "postal": "69"
  },
  {
    "lat": "45.9792909",
    "lng": "4.7329939",
    "id": 4852810,
    "name": "BEAUJOLAIS & BBQ",
    "tagsvalue": "103530",
    "tags": [
      {
        "tag": "103530"
      }
    ],
    "address": "1195 avenue Edouard Herriot 69400 VILLEFRANCHE SUR SAONE",
    "city": "VILLEFRANCHE SUR SAONE",
    "postal": "69"
  },
  {
    "lat": "45.9915417",
    "lng": "4.7186122",
    "id": 4852811,
    "name": "LA TORRE ",
    "tagsvalue": "103555",
    "tags": [
      {
        "tag": "103555"
      }
    ],
    "address": "420 rue nationale 69400 VILLEFRANCHE-SUR-SAONE",
    "city": "VILLEFRANCHE SUR SAONE",
    "postal": "69"
  },
  {
    "lat": "45.5018541",
    "lng": "4.2551844",
    "id": 4852812,
    "name": "GREGOIRE EPICERIE FINE",
    "tagsvalue": "103607",
    "tags": [
      {
        "tag": "103607"
      }
    ],
    "address": "8 avenue Grégoire Chapoton 42170 SAINT-JUST-DE-RAMBERT",
    "city": "ST JUST ST RAMBERT",
    "postal": "42"
  },
  {
    "lat": "45.4753701",
    "lng": "4.5078919",
    "id": 4852813,
    "name": "PATISSERIE CAUET",
    "tagsvalue": "103612",
    "tags": [
      {
        "tag": "103612"
      }
    ],
    "address": "19 rue Alsace Lorraine 42400 SAINT CHAMOND",
    "city": "ST CHAMOND",
    "postal": "42"
  },
  {
    "lat": "45.4849195",
    "lng": "4.3427363",
    "id": 4852814,
    "name": "OENOPHIL",
    "tagsvalue": "103621",
    "tags": [
      {
        "tag": "103621"
      }
    ],
    "address": "574 RD 1082 Lieu Dit La Porchère 42480 LA FOUILLOUSE",
    "city": "LA FOUILLOUSE",
    "postal": "42"
  },
  {
    "lat": "45.3936093",
    "lng": "4.3426551",
    "id": 4852815,
    "name": "FROMAGERIE PERRIN ET FILS",
    "tagsvalue": "103628",
    "tags": [
      {
        "tag": "103628"
      }
    ],
    "address": "6 Allée Pierre Loti 42500 LE CHAMBON FEUGEROLLES",
    "city": "LE CHAMBON FEUGEROLLES",
    "postal": "42"
  },
  {
    "lat": "45.4405551",
    "lng": "4.3862469",
    "id": 4852816,
    "name": "ON PLANCHE SUR L'APERO",
    "tagsvalue": "103659",
    "tags": [
      {
        "tag": "103659"
      }
    ],
    "address": "3 place Jean Jaures 42000 ST ETIENNE",
    "city": "ST ETIENNE",
    "postal": "42"
  },
  {
    "lat": "45.7583612",
    "lng": "4.7756474",
    "id": 4852817,
    "name": "LE VIN ET 1 PLAT",
    "tagsvalue": "103661",
    "tags": [
      {
        "tag": "103661"
      }
    ],
    "address": " 173 avenue Charles de Gaulle 69160 TASSIN LA DEMI LUNE",
    "city": "TASSIN LA DEMI LUNE",
    "postal": "69"
  },
  {
    "lat": "45.9532066",
    "lng": "4.6643474",
    "id": 4852818,
    "name": "FROMAGERIE DU GRAND PASSELOUP",
    "tagsvalue": "103667",
    "tags": [
      {
        "tag": "103667"
      }
    ],
    "address": "470 route de Tarare 69400 LIERGUES",
    "city": "LIERGUES",
    "postal": "69"
  },
  {
    "lat": "45.7496971",
    "lng": "4.8447192",
    "id": 4852819,
    "name": "L'ART DES CHOIX",
    "tagsvalue": "103695",
    "tags": [
      {
        "tag": "103695"
      }
    ],
    "address": "53 avenue Jean Jaurès 69007 LYON 07",
    "city": "LYON 07",
    "postal": "69"
  },
  {
    "lat": "45.759758",
    "lng": "4.8487676",
    "id": 4852820,
    "name": "LAITERIE GILBERT",
    "tagsvalue": "103760",
    "tags": [
      {
        "tag": "103760"
      }
    ],
    "address": "87 rue de la Part Dieu 69003 LYON 03",
    "city": "LYON 03",
    "postal": "69"
  },
  {
    "lat": "45.7570906",
    "lng": "4.8419325",
    "id": 4852821,
    "name": "CAVE DES LUMIERES",
    "tagsvalue": "103776",
    "tags": [
      {
        "tag": "103776"
      }
    ],
    "address": "11 rue Aimé Collomb 69003 LYON 03",
    "city": "LYON 03",
    "postal": "69"
  },
  {
    "lat": "45.7558389",
    "lng": "4.8329281",
    "id": 4852822,
    "name": "VAVRO AND CO",
    "tagsvalue": "103792",
    "tags": [
      {
        "tag": "103792"
      }
    ],
    "address": "6 rue de la Charité 69002 LYON 02",
    "city": "LYON 02",
    "postal": "69"
  },
  {
    "lat": "45.659055",
    "lng": "4.563797",
    "id": 4852823,
    "name": "O2L TRAITEUR",
    "tagsvalue": "103795",
    "tags": [
      {
        "tag": "103795"
      }
    ],
    "address": "61 Grande rue 69850 ST MARTIN EN HAUT",
    "city": "ST MARTIN EN HAUT",
    "postal": "69"
  },
  {
    "lat": "45.7616995",
    "lng": "4.856256",
    "id": 4852824,
    "name": "COOK ME",
    "tagsvalue": "103798",
    "tags": [
      {
        "tag": "103798"
      }
    ],
    "address": "Centre commercial La Part-Dieu 2e étage 69003 LYON",
    "city": "LYON",
    "postal": "69"
  },
  {
    "lat": "45.5028037",
    "lng": "4.8324197",
    "id": 4852825,
    "name": "LA VIENNOISE",
    "tagsvalue": "103810",
    "tags": [
      {
        "tag": "103810"
      }
    ],
    "address": "D48 Boucherie Dailland 64-66 RD386 69420 VERENAY AMPUIS",
    "city": "ESTRABLIN",
    "postal": "38"
  },
  {
    "lat": "45.7671356",
    "lng": "4.834553",
    "id": 4852826,
    "name": "LES FROMAGEURS",
    "tagsvalue": "103826",
    "tags": [
      {
        "tag": "103826"
      }
    ],
    "address": "14 rue du Président Édouard Herriot 69001 LYON",
    "city": "LYON 01",
    "postal": "69"
  },
  {
    "lat": "45.6475675",
    "lng": "4.8124211",
    "id": 4852827,
    "name": "VSOP GOURMET",
    "tagsvalue": "103840",
    "tags": [
      {
        "tag": "103840"
      }
    ],
    "address": "35 rue du Pont 69390 VERNAISON",
    "city": "VERNAISON",
    "postal": "69"
  },
  {
    "lat": "46.067284",
    "lng": "4.6499432",
    "id": 4852828,
    "name": "EPICERIE",
    "tagsvalue": "103842",
    "tags": [
      {
        "tag": "103842"
      }
    ],
    "address": "264 rue du Beaujolais 69460 ST ETIENNE DES OULLIERES",
    "city": "ST ETIENNE DES OULLIERES",
    "postal": "69"
  },
  {
    "lat": "45.8766574",
    "lng": "4.8444147",
    "id": 4852829,
    "name": "CELLIER NEUVILLOIS",
    "tagsvalue": "103852",
    "tags": [
      {
        "tag": "103852"
      }
    ],
    "address": "3 rue Pollet 69250 NEUVILLE SUR SAONE",
    "city": "NEUVILLE SUR SAONE",
    "postal": "69"
  },
  {
    "lat": "45.759323",
    "lng": "4.8421322",
    "id": 4852830,
    "name": "THE GASTRONOMIE HOUSE",
    "tagsvalue": "103858",
    "tags": [
      {
        "tag": "103858"
      }
    ],
    "address": "9 rue de la Part-Dieu 69003 LYON",
    "city": "LYON 03",
    "postal": "69"
  },
  {
    "lat": "45.6320459",
    "lng": "4.8554154",
    "id": 4852831,
    "name": "LA FROMAGERIE DE SEVERINE",
    "tagsvalue": "103869",
    "tags": [
      {
        "tag": "103869"
      }
    ],
    "address": "\n8 avenue Claude de la Colombière 69360 SAINT SYMPHORIEN D'OZON",
    "city": "ST SYMPHORIEN D'OZON",
    "postal": "69"
  },
  {
    "lat": "47.5878463",
    "lng": "-3.0285188",
    "id": 4852832,
    "name": "L'EPICERIE DU PORT",
    "tagsvalue": "100309",
    "tags": [
      {
        "tag": "100309"
      }
    ],
    "address": "24 cours des Quais 56470 LA TRINITE",
    "city": "LA TRINITE",
    "postal": "56"
  },
  {
    "lat": "49.225977",
    "lng": "-0.218696",
    "id": 4852833,
    "name": "LES PEPINIERES DE BAVENT",
    "tagsvalue": "100541",
    "tags": [
      {
        "tag": "100541"
      }
    ],
    "address": "route de Caen-Cabourg - D 513 14860 BAVENT",
    "city": "BAVENT",
    "postal": "14"
  },
  {
    "lat": "49.1619286",
    "lng": "-0.4002383",
    "id": 4852834,
    "name": "LES JARDINS DE LOUVIGNY",
    "tagsvalue": "100542",
    "tags": [
      {
        "tag": "100542"
      }
    ],
    "address": "ZAC du Long Cours 14111 LOUVIGNY",
    "city": "LOUVIGNY",
    "postal": "14"
  },
  {
    "lat": "47.6666407",
    "lng": "-2.9845563",
    "id": 4852835,
    "name": "LE PANIER D'ARMORIQUE",
    "tagsvalue": "100687",
    "tags": [
      {
        "tag": "100687"
      }
    ],
    "address": "74 place de la République 56400 AURAY",
    "city": "AURAY",
    "postal": "56"
  },
  {
    "lat": "47.8528059",
    "lng": "-4.2504061",
    "id": 4852836,
    "name": "CAVE DE LA ROCADE",
    "tagsvalue": "100697",
    "tags": [
      {
        "tag": "100697"
      }
    ],
    "address": "2 avenue de Kerouant Vian 29125 PONT L'ABBE CEDEX",
    "city": "PONT L'ABBE CEDEX",
    "postal": "29"
  },
  {
    "lat": "47.2855818",
    "lng": "-2.39457",
    "id": 4852837,
    "name": "LA TOUR DE PISE",
    "tagsvalue": "100799",
    "tags": [
      {
        "tag": "100799"
      }
    ],
    "address": "33 rue des Ibis 44500 LA BAULE",
    "city": "LA BAULE",
    "postal": "44"
  },
  {
    "lat": "48.4494741",
    "lng": "-4.2494022",
    "id": 4852838,
    "name": "LE VIN DIVIN",
    "tagsvalue": "100909",
    "tags": [
      {
        "tag": "100909"
      }
    ],
    "address": "7 quai de Cornouaille 29800 LANDERNEAU",
    "city": "LANDERNEAU",
    "postal": "29"
  },
  {
    "lat": "47.6899037",
    "lng": "-2.7317092",
    "id": 4852839,
    "name": "AU NOM DU VIN",
    "tagsvalue": "100910",
    "tags": [
      {
        "tag": "100910"
      }
    ],
    "address": "4 place du Loc 56890 SAINT AVE",
    "city": "SAINT AVE",
    "postal": "56"
  },
  {
    "lat": "47.2471131",
    "lng": "-2.1655365",
    "id": 4852840,
    "name": "DOUCEURS ET SENTEURS",
    "tagsvalue": "101078",
    "tags": [
      {
        "tag": "101078"
      }
    ],
    "address": "17 rue du Général de Gaulle 44249 SAINT BREVIN",
    "city": "SAINT BREVIN",
    "postal": "44"
  },
  {
    "lat": "47.2023442",
    "lng": "-1.5790719",
    "id": 4852841,
    "name": "EPICES ET VOUS",
    "tagsvalue": "101146",
    "tags": [
      {
        "tag": "101146"
      }
    ],
    "address": "11 avenue Sainte Anne 44100 NANTES",
    "city": "NANTES",
    "postal": "44"
  },
  {
    "lat": "48.7631126",
    "lng": "-3.452744",
    "id": 4852842,
    "name": "LES CAVES DU TREGOR",
    "tagsvalue": "101166",
    "tags": [
      {
        "tag": "101166"
      }
    ],
    "address": "ZA de Keringant 22700 ST QUAY PERROS",
    "city": "ST QUAY PERROS",
    "postal": "22"
  },
  {
    "lat": "46.7255567",
    "lng": "-2.3502553",
    "id": 4852843,
    "name": "LE COMPTOIR A ID",
    "tagsvalue": "101177",
    "tags": [
      {
        "tag": "101177"
      }
    ],
    "address": "7 rue de la République 85350 L'ILE D'YEU",
    "city": "L'ILE D'YEU",
    "postal": "85"
  },
  {
    "lat": "48.653869",
    "lng": "-3.6311397",
    "id": 4852844,
    "name": "LA CAVE D'AUVELAIS",
    "tagsvalue": "101178",
    "tags": [
      {
        "tag": "101178"
      }
    ],
    "address": "3 place d'Auvelais 22310 PLESTIN LES GREVES",
    "city": "PLESTIN LES GREVES",
    "postal": "22"
  },
  {
    "lat": "47.3747516",
    "lng": "-1.1877958",
    "id": 4852845,
    "name": "CONFISERIE AUX DELICES",
    "tagsvalue": "101243",
    "tags": [
      {
        "tag": "101243"
      }
    ],
    "address": "135 boulevard Magiresti 44150 ANCENIS",
    "city": "ANCENIS",
    "postal": "44"
  },
  {
    "lat": "47.4396662",
    "lng": "-0.2149888",
    "id": 4852846,
    "name": "DELICIEUX INSTANTS",
    "tagsvalue": "101270",
    "tags": [
      {
        "tag": "101270"
      }
    ],
    "address": "7 rue de la Maladrerie 49250 BEAUFORT EN VALLEE",
    "city": "BEAUFORT EN VALLEE",
    "postal": "49"
  },
  {
    "lat": "48.021705",
    "lng": "-3.720438",
    "id": 4852847,
    "name": "LA CAVE DE L'ISOLE",
    "tagsvalue": "101273",
    "tags": [
      {
        "tag": "101273"
      }
    ],
    "address": "rue Henri Croissant 29390 SCAER",
    "city": "SCAER",
    "postal": "29"
  },
  {
    "lat": "47.4141419",
    "lng": "-1.6637284",
    "id": 4852848,
    "name": "LA CAVE DES SAVEURS",
    "tagsvalue": "101340",
    "tags": [
      {
        "tag": "101340"
      }
    ],
    "address": "Z.A. de Boisdon - rue Gustave Eiffel 44810 HERIC",
    "city": "HERIC",
    "postal": "44"
  },
  {
    "lat": "47.8310901",
    "lng": "-0.3050165",
    "id": 4852849,
    "name": "LA SABLESIENNE DE BISCUITERIE",
    "tagsvalue": "101425",
    "tags": [
      {
        "tag": "101425"
      }
    ],
    "address": "1 avenue Jean Monnet 72300 SABLE SUR SARTHE",
    "city": "SABLE SUR SARTHE",
    "postal": "72"
  },
  {
    "lat": "48.0579291",
    "lng": "-1.5091322",
    "id": 4852850,
    "name": "SA BEUCHER",
    "tagsvalue": "101582",
    "tags": [
      {
        "tag": "101582"
      }
    ],
    "address": "ZA de Rocomps 35410 CHATEAUGIRON",
    "city": "CHATEAUGIRON",
    "postal": "35"
  },
  {
    "lat": "48.1049696",
    "lng": "-1.6505502",
    "id": 4852851,
    "name": "CONFIDENCES DES VIGNOBLES",
    "tagsvalue": "101613",
    "tags": [
      {
        "tag": "101613"
      }
    ],
    "address": "62 boulevard Villebois Mareuil 35000 RENNES",
    "city": "RENNES",
    "postal": "35"
  },
  {
    "lat": "49.1157508",
    "lng": "-1.0883533",
    "id": 4852852,
    "name": "AU MOULIN A CAFE",
    "tagsvalue": "101617",
    "tags": [
      {
        "tag": "101617"
      }
    ],
    "address": "41 rue de Neufbourg 50000 ST LO",
    "city": "MAYENNE",
    "postal": "53"
  },
  {
    "lat": "49.5147851",
    "lng": "-1.8068099",
    "id": 4852853,
    "name": "LA CAVE DU P'TIT BOURG",
    "tagsvalue": "101692",
    "tags": [
      {
        "tag": "101692"
      }
    ],
    "address": "44 rue Centrale 50340 LES PIEUX",
    "city": "LES PIEUX",
    "postal": "50"
  },
  {
    "lat": "47.2592755",
    "lng": "-0.0748953",
    "id": 4852854,
    "name": "L'ANGLE DES DELICES",
    "tagsvalue": "101704",
    "tags": [
      {
        "tag": "101704"
      }
    ],
    "address": "22 rue de la Tonnelle 49400 SAUMUR",
    "city": "SAUMUR",
    "postal": "49"
  },
  {
    "lat": "46.8389414",
    "lng": "-0.4920309",
    "id": 4852855,
    "name": "L'EPICERIE DES SAVEURS",
    "tagsvalue": "101754",
    "tags": [
      {
        "tag": "101754"
      }
    ],
    "address": "3 place du 5 Mai 79300 BRESSUIRE",
    "city": "BRESSUIRE",
    "postal": "79"
  },
  {
    "lat": "48.3617727",
    "lng": "-4.2606051",
    "id": 4852856,
    "name": "HISTOIRES DE GOUTS",
    "tagsvalue": "101768",
    "tags": [
      {
        "tag": "101768"
      }
    ],
    "address": "9 bis rue du Pont 29460 DAOULAS",
    "city": "DAOULAS",
    "postal": "29"
  },
  {
    "lat": "48.8386098",
    "lng": "-1.5990733",
    "id": 4852857,
    "name": "UN POIL GOURMAND",
    "tagsvalue": "101774",
    "tags": [
      {
        "tag": "101774"
      }
    ],
    "address": "3 rue Georges Clémenceau 50400 GRANVILLE",
    "city": "GRANVILLE",
    "postal": "50"
  },
  {
    "lat": "48.3227742",
    "lng": "0.8215212",
    "id": 4852858,
    "name": "TOUT FRAIS TOUT FRUITS",
    "tagsvalue": "101798",
    "tags": [
      {
        "tag": "101798"
      }
    ],
    "address": "1 place Saint Pôl 28400 NOGENT LE ROTROU",
    "city": "NOGENT LE ROTROU",
    "postal": "28"
  },
  {
    "lat": "48.4293992",
    "lng": "0.0875269",
    "id": 4852859,
    "name": "TOUT FRAIS TOUT FRUITS",
    "tagsvalue": "101798",
    "tags": [
      {
        "tag": "101798"
      }
    ],
    "address": "76 Grande rue 61000 ALENÇON",
    "city": "ALENCON",
    "postal": "61"
  },
  {
    "lat": "48.3376582",
    "lng": "0.5617323",
    "id": 4852860,
    "name": "BESSE PRIMEURS ",
    "tagsvalue": "101798",
    "tags": [
      {
        "tag": "101798"
      }
    ],
    "address": "La Métairie 61130 APPENAI SOUS BELLEME",
    "city": "APPENAI SOUS BELLEME",
    "postal": "61"
  },
  {
    "lat": "47.2138706",
    "lng": "-1.5856167",
    "id": 4852861,
    "name": "ZOLA PRIMEURS",
    "tagsvalue": "101805",
    "tags": [
      {
        "tag": "101805"
      }
    ],
    "address": "7 place Zola 44000 NANTES",
    "city": "NANTES",
    "postal": "44"
  },
  {
    "lat": "49.5131526",
    "lng": "-1.4802807",
    "id": 4852862,
    "name": "LE CELLIER DES GRANDS VINS",
    "tagsvalue": "101813",
    "tags": [
      {
        "tag": "101813"
      }
    ],
    "address": "50 bd Félix Buhot route de Cherbourg 50700 VALOGNES",
    "city": "VALOGNES",
    "postal": "50"
  },
  {
    "lat": "47.1686254",
    "lng": "-1.4732656",
    "id": 4852863,
    "name": "AU PECHER MIGNON",
    "tagsvalue": "101817",
    "tags": [
      {
        "tag": "101817"
      }
    ],
    "address": "19 place St Martin 44120 VERTOU",
    "city": "VERTOU",
    "postal": "44"
  },
  {
    "lat": "47.6140852",
    "lng": "-0.4615592",
    "id": 4852864,
    "name": "LES VENDANGES DIVINES",
    "tagsvalue": "101825",
    "tags": [
      {
        "tag": "101825"
      }
    ],
    "address": "1 avenue de l'Osier 49125 TIERCE",
    "city": "TIERCE",
    "postal": "49"
  },
  {
    "lat": "47.5841893",
    "lng": "-0.3507507",
    "id": 4852865,
    "name": "LA RONDE DES VINS",
    "tagsvalue": "101826",
    "tags": [
      {
        "tag": "101826"
      }
    ],
    "address": "ZA de la Blaisonnière 49140 SEICHES SUR LE LOIR",
    "city": "SEICHES SUR LE LOIR",
    "postal": "49"
  },
  {
    "lat": "47.0873799",
    "lng": "-1.2820097",
    "id": 4852866,
    "name": "LA MALLE AUX SAVEURS",
    "tagsvalue": "101830",
    "tags": [
      {
        "tag": "101830"
      }
    ],
    "address": "2 rue des Remouleurs 44190 CLISSON",
    "city": "CLISSON",
    "postal": "44"
  },
  {
    "lat": "48.5030906",
    "lng": "-4.4252034",
    "id": 4852867,
    "name": "LE VERRE A VIN",
    "tagsvalue": "101882",
    "tags": [
      {
        "tag": "101882"
      }
    ],
    "address": "15 rue Marechal Leclerc 29860 PLABENNEC",
    "city": "PLABENNEC",
    "postal": "29"
  },
  {
    "lat": "48.2363421",
    "lng": "-4.4973729",
    "id": 4852868,
    "name": "THE A L'OUEST",
    "tagsvalue": "101913",
    "tags": [
      {
        "tag": "101913"
      }
    ],
    "address": "96 boulevard de la France Libre 29160 CROZON",
    "city": "CROZON",
    "postal": "29"
  },
  {
    "lat": "48.6690319",
    "lng": "-3.9140074",
    "id": 4852869,
    "name": "UN VIN DES VINS",
    "tagsvalue": "101948",
    "tags": [
      {
        "tag": "101948"
      }
    ],
    "address": "9 rue du Pilote Tremintin 29660 CARANTEC",
    "city": "CARANTEC",
    "postal": "29"
  },
  {
    "lat": "47.9353438",
    "lng": "-2.4070586",
    "id": 4852870,
    "name": "MAREA",
    "tagsvalue": "101975",
    "tags": [
      {
        "tag": "101975"
      }
    ],
    "address": "Le Hangar 15 A rue du Pardon 56800 PLOERMEL",
    "city": "PLOERMEL",
    "postal": "56"
  },
  {
    "lat": "47.123348",
    "lng": "-1.584177",
    "id": 4852871,
    "name": "LA CAVE A L'ENVERS",
    "tagsvalue": "101993",
    "tags": [
      {
        "tag": "101993"
      }
    ],
    "address": "5 place de Bretagne 44860 PONT ST MARTIN",
    "city": "PONT ST MARTIN",
    "postal": "44"
  },
  {
    "lat": "47.1141485",
    "lng": "-0.9882288",
    "id": 4852872,
    "name": "METS ET PAPILLES",
    "tagsvalue": "102001",
    "tags": [
      {
        "tag": "102001"
      }
    ],
    "address": "8 F rue Konrad Adenauer 49450 ST MACAIRE EN MAUGES",
    "city": "SEVREMOINE",
    "postal": "49"
  },
  {
    "lat": "49.0204334",
    "lng": "-0.6323984",
    "id": 4852873,
    "name": "KADOSIRIS",
    "tagsvalue": "102002",
    "tags": [
      {
        "tag": "102002"
      }
    ],
    "address": "23 rue du 12 juin 44 14260 AUNAY SUR ODON",
    "city": "AUNAY SUR ODON",
    "postal": "14"
  },
  {
    "lat": "47.278626",
    "lng": "-2.4306991",
    "id": 4852874,
    "name": "CASA COSY",
    "tagsvalue": "102041",
    "tags": [
      {
        "tag": "102041"
      }
    ],
    "address": "2 rue du Croisic 44510 LE POULIGUEN",
    "city": "LE POULIGUEN",
    "postal": "44"
  },
  {
    "lat": "49.373581",
    "lng": "-1.8067165",
    "id": 4852875,
    "name": "LE COMPTOIR DE CARTERET",
    "tagsvalue": "102062",
    "tags": [
      {
        "tag": "102062"
      }
    ],
    "address": "67210 OBERNAI",
    "city": "BARNEVILLE CARTERET",
    "postal": "50"
  },
  {
    "lat": "47.4664075",
    "lng": "-0.5595648",
    "id": 4852876,
    "name": "AU PLAISIR",
    "tagsvalue": "102110",
    "tags": [
      {
        "tag": "102110"
      }
    ],
    "address": "20 rue Marceau 49100 ANGERS",
    "city": "ANGERS",
    "postal": "49"
  },
  {
    "lat": "48.5241081",
    "lng": "0.538075",
    "id": 4852877,
    "name": "TOUT FRAIS TOUT FRUITS",
    "tagsvalue": "102118",
    "tags": [
      {
        "tag": "102118"
      }
    ],
    "address": "70 rue du Faubourg Saint Eloi 61400 ST LANGIS LES MORTAGNE",
    "city": "ST LANGIS LES MORTAGNE",
    "postal": "61"
  },
  {
    "lat": "48.0910444",
    "lng": "-4.347433",
    "id": 4852878,
    "name": "LA CAVE DES SOMMELIERS",
    "tagsvalue": "102121",
    "tags": [
      {
        "tag": "102121"
      }
    ],
    "address": "8 rue Edouard Branly 29100 DOUARNENEZ",
    "city": "DOUARNENEZ",
    "postal": "29"
  },
  {
    "lat": "47.6587807",
    "lng": "-2.7549031",
    "id": 4852879,
    "name": "BRULERIE SAINT PATERN",
    "tagsvalue": "102139",
    "tags": [
      {
        "tag": "102139"
      }
    ],
    "address": "4 rue Saint Nicolas 56000 VANNES",
    "city": "VANNES",
    "postal": "56"
  },
  {
    "lat": "48.4469297",
    "lng": "-2.0756707",
    "id": 4852880,
    "name": "TERRE ET VINS",
    "tagsvalue": "102199",
    "tags": [
      {
        "tag": "102199"
      }
    ],
    "address": "Les Quatre routes 22100 QUEVERT",
    "city": "QUEVERT",
    "postal": "22"
  },
  {
    "lat": "48.695475",
    "lng": "-3.79175",
    "id": 4852881,
    "name": "LE PANIER D'OANEZ",
    "tagsvalue": "102254",
    "tags": [
      {
        "tag": "102254"
      }
    ],
    "address": "1 rue Francois Charles 29630 PLOUGASNOU",
    "city": "PLOUGASNOU",
    "postal": "29"
  },
  {
    "lat": "48.7646267",
    "lng": "0.6277577",
    "id": 4852882,
    "name": "61 DEGRES",
    "tagsvalue": "102343",
    "tags": [
      {
        "tag": "102343"
      }
    ],
    "address": "18 place St Martin 61300 L'AIGLE",
    "city": "L'AIGLE",
    "postal": "61"
  },
  {
    "lat": "47.7364347",
    "lng": "-3.4286413",
    "id": 4852883,
    "name": "DELICES D'ANVERS",
    "tagsvalue": "102372",
    "tags": [
      {
        "tag": "102372"
      }
    ],
    "address": "15 place de l'Eglise 56270 PLOEMEUR",
    "city": "PLOEMEUR",
    "postal": "56"
  },
  {
    "lat": "47.8723998",
    "lng": "-3.9192376",
    "id": 4852884,
    "name": "COMPTOIR ET TRADITION",
    "tagsvalue": "102374",
    "tags": [
      {
        "tag": "102374"
      }
    ],
    "address": "6 rue des Ecoles 29900 CONCARNEAU",
    "city": "CONCARNEAU",
    "postal": "29"
  },
  {
    "lat": "48.8404344",
    "lng": "0.5115339",
    "id": 4852885,
    "name": "AU COURS DES HALLES",
    "tagsvalue": "102386",
    "tags": [
      {
        "tag": "102386"
      }
    ],
    "address": "11 Grande rue 61550 LA FERTE FRENEL",
    "city": "LA FERTE FRENEL",
    "postal": "61"
  },
  {
    "lat": "48.0578791",
    "lng": "-2.965007",
    "id": 4852886,
    "name": "SANDY FRUITS",
    "tagsvalue": "102409",
    "tags": [
      {
        "tag": "102409"
      }
    ],
    "address": "9 rue Albert Demun 56300 PONTIVY",
    "city": "PONTIVY",
    "postal": "56"
  },
  {
    "lat": "48.5551763",
    "lng": "-3.1240518",
    "id": 4852887,
    "name": "FROM EPI FRUITS",
    "tagsvalue": "102455",
    "tags": [
      {
        "tag": "102455"
      }
    ],
    "address": "5 avenue du Goelo - ZI DE Bellevue 22970 PLOUMAGOAR",
    "city": "PLOUMAGOAR",
    "postal": "22"
  },
  {
    "lat": "48.8377459",
    "lng": "-1.2228866",
    "id": 4852888,
    "name": "L'ANGELUS",
    "tagsvalue": "102467",
    "tags": [
      {
        "tag": "102467"
      }
    ],
    "address": "4 place des Chevaliers de Malte 50800 VILLEDIEU LES POELES",
    "city": "VILLEDIEU LES POELES",
    "postal": "50"
  },
  {
    "lat": "49.115761",
    "lng": "-1.0879058",
    "id": 4852889,
    "name": "AU MOULIN A CAFE",
    "tagsvalue": "102478",
    "tags": [
      {
        "tag": "102478"
      }
    ],
    "address": "41 rue de Neufbourg 50000 ST LO",
    "city": "ST LO",
    "postal": "50"
  },
  {
    "lat": "47.0032419",
    "lng": "-0.8502247",
    "id": 4852890,
    "name": "CREMERIE BENETEAU-ROY",
    "tagsvalue": "102493",
    "tags": [
      {
        "tag": "102493"
      }
    ],
    "address": "2 route de Moulins 49280 LA TESSOUALE",
    "city": "LA TESSOUALE",
    "postal": "49"
  },
  {
    "lat": "47.062097",
    "lng": "-0.880996",
    "id": 4852891,
    "name": "HOLA LA",
    "tagsvalue": "102507",
    "tags": [
      {
        "tag": "102507"
      }
    ],
    "address": "128 rue Nationale Côté place Rougé 49300 CHOLET",
    "city": "CHOLET",
    "postal": "49"
  },
  {
    "lat": "48.4312583",
    "lng": "0.0882827",
    "id": 4852892,
    "name": "VINS ET TRADITIONS",
    "tagsvalue": "102537",
    "tags": [
      {
        "tag": "102537"
      }
    ],
    "address": "7 rue de la Halle aux Toiles 61000 ALENÇON",
    "city": "ALENCON",
    "postal": "61"
  },
  {
    "lat": "48.592691",
    "lng": "-0.646546",
    "id": 4852893,
    "name": "L'ARTS DES METS",
    "tagsvalue": "102541",
    "tags": [
      {
        "tag": "102541"
      }
    ],
    "address": "9 Grande rue 61700 DOMFRONT",
    "city": "DOMFRONT",
    "postal": "61"
  },
  {
    "lat": "49.0652625",
    "lng": "-1.4327073",
    "id": 4852894,
    "name": "LA CAVE COUTANCAISE",
    "tagsvalue": "102565",
    "tags": [
      {
        "tag": "102565"
      }
    ],
    "address": "77 avenue Division Leclerc 50200 COUTANCES",
    "city": "COUTANCES",
    "postal": "50"
  },
  {
    "lat": "49.6398063",
    "lng": "-1.6237519",
    "id": 4852895,
    "name": "LES 3 MARCHES",
    "tagsvalue": "102577",
    "tags": [
      {
        "tag": "102577"
      }
    ],
    "address": "13 Grande rue 50100 CHERBOURG",
    "city": "CHERBOURG",
    "postal": "50"
  },
  {
    "lat": "49.2773052",
    "lng": "-0.7007772",
    "id": 4852896,
    "name": "L'OLIVERADE",
    "tagsvalue": "102603",
    "tags": [
      {
        "tag": "102603"
      }
    ],
    "address": "12 rue Maréchal Foch 14400 BAYEUX",
    "city": "BAYEUX",
    "postal": "14"
  },
  {
    "lat": "47.4753555",
    "lng": "-0.549706",
    "id": 4852897,
    "name": "SAVEURS DU PRIMEUR",
    "tagsvalue": "102612",
    "tags": [
      {
        "tag": "102612"
      }
    ],
    "address": "6 place Hérault 49100 ANGERS",
    "city": "ANGERS",
    "postal": "49"
  },
  {
    "lat": "45.9875564",
    "lng": "-1.0947547",
    "id": 4852898,
    "name": "L'EPICERIE",
    "tagsvalue": "102623",
    "tags": [
      {
        "tag": "102623"
      }
    ],
    "address": "44 rue de la Halle 17450 FOURAS",
    "city": "FOURAS",
    "postal": "17"
  },
  {
    "lat": "47.824253",
    "lng": "-0.707757",
    "id": 4852899,
    "name": "CO'THE SAVEURS",
    "tagsvalue": "102645",
    "tags": [
      {
        "tag": "102645"
      }
    ],
    "address": "21 avenue razilly 53200 CHATEAU GONTIER",
    "city": "CHATEAU GONTIER",
    "postal": "53"
  },
  {
    "lat": "45.7460732",
    "lng": "-0.6336179",
    "id": 4852900,
    "name": "THE ET CAFES",
    "tagsvalue": "102656",
    "tags": [
      {
        "tag": "102656"
      }
    ],
    "address": "10 place de l'Echevinage 17100 SAINTES",
    "city": "SAINTES",
    "postal": "17"
  },
  {
    "lat": "45.6242296",
    "lng": "-1.0277606",
    "id": 4852901,
    "name": "LE JARDIN DES THES",
    "tagsvalue": "102659",
    "tags": [
      {
        "tag": "102659"
      }
    ],
    "address": "7 boulevard de la République 17200 ROYAN",
    "city": "ROYAN",
    "postal": "17"
  },
  {
    "lat": "46.9751274",
    "lng": "-1.3126195",
    "id": 4852902,
    "name": "COMPTOIR DE LA DIGUE",
    "tagsvalue": "102681",
    "tags": [
      {
        "tag": "102681"
      }
    ],
    "address": "63 rue Georges Clémenceau 85600 MONTAIGU",
    "city": "MONTAIGU",
    "postal": "85"
  },
  {
    "lat": "47.369297",
    "lng": "-1.396005",
    "id": 4852903,
    "name": "SCAEL",
    "tagsvalue": "102683",
    "tags": [
      {
        "tag": "102683"
      }
    ],
    "address": "57 rue de Beaucé 44850 LIGNE",
    "city": "LIGNE",
    "postal": "44"
  },
  {
    "lat": "49.0435862",
    "lng": "-1.5763981",
    "id": 4852904,
    "name": "LE SPECIALISTE DU FROMAGE",
    "tagsvalue": "102761",
    "tags": [
      {
        "tag": "102761"
      }
    ],
    "address": "72 La rue d'Agon 50230 AGON COUTAINVILLE",
    "city": "AGON COUTAINVILLE",
    "postal": "50"
  },
  {
    "lat": "48.3860823",
    "lng": "-4.4901619",
    "id": 4852905,
    "name": "CARPEDIEM",
    "tagsvalue": "102765",
    "tags": [
      {
        "tag": "102765"
      }
    ],
    "address": "11 rue Amiral Linois 29200 BREST",
    "city": "BREST",
    "postal": "29"
  },
  {
    "lat": "46.4156835",
    "lng": "-1.576593",
    "id": 4852906,
    "name": "LA CAVE DES CHOUANS",
    "tagsvalue": "102767",
    "tags": [
      {
        "tag": "102767"
      }
    ],
    "address": "83 rue de l'Océan 85520 JARD SUR MER",
    "city": "JARD SUR MER",
    "postal": "85"
  },
  {
    "lat": "46.160954",
    "lng": "-1.1079049",
    "id": 4852907,
    "name": "COULEUR MARCHE",
    "tagsvalue": "102773",
    "tags": [
      {
        "tag": "102773"
      }
    ],
    "address": "rue Blaise Pascal 17180 PERIGNY",
    "city": "PERIGNY",
    "postal": "17"
  },
  {
    "lat": "47.7124296",
    "lng": "-3.3530506",
    "id": 4852908,
    "name": "L'ECHAUGUETTE",
    "tagsvalue": "102807",
    "tags": [
      {
        "tag": "102807"
      }
    ],
    "address": "45 Grand rue 56290 PORT LOUIS",
    "city": "PORT LOUIS",
    "postal": "56"
  },
  {
    "lat": "46.4578737",
    "lng": "-0.5958367",
    "id": 4852909,
    "name": "LES FROMAGES DE SYLVIE",
    "tagsvalue": "102813",
    "tags": [
      {
        "tag": "102813"
      }
    ],
    "address": "chemin Sabourin Tourteron 79160 COULONGES SUR L'AUTIZE",
    "city": "COULONGES SUR L'AUTIZE",
    "postal": "79"
  },
  {
    "lat": "45.9874888",
    "lng": "-1.094245",
    "id": 4852910,
    "name": "FROMAGERIE CHEZ MOI",
    "tagsvalue": "102814",
    "tags": [
      {
        "tag": "102814"
      }
    ],
    "address": "61 rue des Halles 17450 FOURAS",
    "city": "FOURAS",
    "postal": "17"
  },
  {
    "lat": "47.3786762",
    "lng": "-1.1882519",
    "id": 4852911,
    "name": "LE MARCHE DU BOIS JAUNI",
    "tagsvalue": "102848",
    "tags": [
      {
        "tag": "102848"
      }
    ],
    "address": "2 place Pierre de Coubertin 44150 ANCENIS",
    "city": "ANCENIS",
    "postal": "44"
  },
  {
    "lat": "47.6625656",
    "lng": "-2.4555003",
    "id": 4852912,
    "name": "LA TOMATE EPICEE",
    "tagsvalue": "102873",
    "tags": [
      {
        "tag": "102873"
      }
    ],
    "address": "4 place du 8 Mai 1945 56230 QUESTEMBERT",
    "city": "QUESTEMBERT",
    "postal": "56"
  },
  {
    "lat": "49.6385066",
    "lng": "-1.6229915",
    "id": 4852913,
    "name": "LE COMPTOIR DE STEPHANIE",
    "tagsvalue": "102889",
    "tags": [
      {
        "tag": "102889"
      }
    ],
    "address": "25 rue Maréchal Foch 50100 CHERBOURG",
    "city": "CHERBOURG",
    "postal": "50"
  },
  {
    "lat": "48.6856565",
    "lng": "-1.3585972",
    "id": 4852914,
    "name": "CAGOU TERROIRS",
    "tagsvalue": "102898",
    "tags": [
      {
        "tag": "102898"
      }
    ],
    "address": "17 rue Saint Gervais 50300 AVRANCHES",
    "city": "AVRANCHES",
    "postal": "50"
  },
  {
    "lat": "47.8474087",
    "lng": "-0.9460777",
    "id": 4852915,
    "name": "VERRE ET PAPILLES",
    "tagsvalue": "102900",
    "tags": [
      {
        "tag": "102900"
      }
    ],
    "address": "27 route de Château Gontier 53400 CRAON",
    "city": "CRAON",
    "postal": "53"
  },
  {
    "lat": "48.1370293",
    "lng": "-1.9546778",
    "id": 4852916,
    "name": "PERRETTE",
    "tagsvalue": "102903",
    "tags": [
      {
        "tag": "102903"
      }
    ],
    "address": "8 rue de l'Horloge 35160 MONTFORT-SUR-MEU",
    "city": "MONTFORT",
    "postal": "35"
  },
  {
    "lat": "49.3230896",
    "lng": "-0.0060616",
    "id": 4852917,
    "name": "LA CAVE DE LA PLAGE",
    "tagsvalue": "102936",
    "tags": [
      {
        "tag": "102936"
      }
    ],
    "address": "2 rue du Maréchal Foch 14640 VILLERS SUR MER",
    "city": "VILLERS SUR MER",
    "postal": "14"
  },
  {
    "lat": "47.6518216",
    "lng": "-2.7314434",
    "id": 4852918,
    "name": "MIL'FRUITS KENVAD",
    "tagsvalue": "102939",
    "tags": [
      {
        "tag": "102939"
      }
    ],
    "address": "47 route de Nantes 56860 SENE",
    "city": "SENE",
    "postal": "56"
  },
  {
    "lat": "47.8262497",
    "lng": "-0.3072199",
    "id": 4852919,
    "name": " STOKBOX \/ ETS PIPELIER",
    "tagsvalue": "102976",
    "tags": [
      {
        "tag": "102976"
      }
    ],
    "address": "7 rue Saint Laurent 72300 SABLE SUR SARTHE",
    "city": "SABLE SUR SARTHE",
    "postal": "72"
  },
  {
    "lat": "48.6807931",
    "lng": "-1.9678412",
    "id": 4852920,
    "name": "1534 ATELIER GOURMAND",
    "tagsvalue": "102981",
    "tags": [
      {
        "tag": "102981"
      }
    ],
    "address": "14 place du Canada 35400 ST MALO",
    "city": "ST MALO",
    "postal": "35"
  },
  {
    "lat": "47.3499862",
    "lng": "-0.2258733",
    "id": 4852921,
    "name": "AUX RIVES GOURMANDES",
    "tagsvalue": "102992",
    "tags": [
      {
        "tag": "102992"
      }
    ],
    "address": "45 rue Nationale 49350 LES ROSIERS",
    "city": "LES ROSIERS",
    "postal": "49"
  },
  {
    "lat": "49.4221733",
    "lng": "0.2318018",
    "id": 4852922,
    "name": "MAISON LA GOULUE",
    "tagsvalue": "102993",
    "tags": [
      {
        "tag": "102993"
      }
    ],
    "address": "5 rue de l'Homme de bois 14600 HONFLEUR",
    "city": "LA BAULE ESCOUBLAC",
    "postal": "44"
  },
  {
    "lat": "48.1677034",
    "lng": "-2.7394173",
    "id": 4852923,
    "name": "PRIMEUR C LE BRIS",
    "tagsvalue": "103015",
    "tags": [
      {
        "tag": "103015"
      }
    ],
    "address": "6 impasse de la Chabotais 22600 LOUDEAC",
    "city": "LOUDEAC",
    "postal": "22"
  },
  {
    "lat": "47.3967739",
    "lng": "-0.4495039",
    "id": 4852924,
    "name": "TOUTE LA MAISON EN PARLE",
    "tagsvalue": "103044",
    "tags": [
      {
        "tag": "103044"
      }
    ],
    "address": "7 route de Buchene 49320 ST JEAN DES MAUVRETS",
    "city": "ST SATURNIN SUR LOIRE",
    "postal": "49"
  },
  {
    "lat": "46.0762893",
    "lng": "-1.091445",
    "id": 4852925,
    "name": "EN APAR'THE",
    "tagsvalue": "103059",
    "tags": [
      {
        "tag": "103059"
      }
    ],
    "address": "105 boulevard de la République 17340 CHATELAILLON",
    "city": "CHATELAILLON",
    "postal": "17"
  },
  {
    "lat": "47.2494369",
    "lng": "-0.0904682",
    "id": 4852926,
    "name": "COIN FROMAGES",
    "tagsvalue": "103087",
    "tags": [
      {
        "tag": "103087"
      }
    ],
    "address": "66 rue du Pont Fouchard 49400 SAUMUR",
    "city": "SAUMUR",
    "postal": "49"
  },
  {
    "lat": "47.277369",
    "lng": "-1.487408",
    "id": 4852927,
    "name": "LA FROMAGERIE D'AMALTHEE",
    "tagsvalue": "103090",
    "tags": [
      {
        "tag": "103090"
      }
    ],
    "address": "rue des Antilles 44470 CARQUEFOU",
    "city": "CARQUEFOU",
    "postal": "44"
  },
  {
    "lat": "47.217453",
    "lng": "-1.551855",
    "id": 4852928,
    "name": "CREMERIE DES CARMELITES",
    "tagsvalue": "103097",
    "tags": [
      {
        "tag": "103097"
      }
    ],
    "address": "15 rue de Verdun 44000 NANTES",
    "city": "NANTES",
    "postal": "44"
  },
  {
    "lat": "47.8425861",
    "lng": "-1.6806019",
    "id": 4852929,
    "name": "LA CREMERIE DE LOUISE",
    "tagsvalue": "103101",
    "tags": [
      {
        "tag": "103101"
      }
    ],
    "address": "22 place de la République 35470 BAIN DE BRETAGNE",
    "city": "BAIN DE BRETAGNE",
    "postal": "35"
  },
  {
    "lat": "45.9353403",
    "lng": "-0.9609941",
    "id": 4852930,
    "name": "L'EPICERIE ROCHEFORTAISE",
    "tagsvalue": "103103",
    "tags": [
      {
        "tag": "103103"
      }
    ],
    "address": "16 avenue Charles de Gaulle 17300 Rochefort",
    "city": "ROCHEFORT",
    "postal": "17"
  },
  {
    "lat": "47.6497447",
    "lng": "-2.0851599",
    "id": 4852931,
    "name": "BOGD'OR",
    "tagsvalue": "103107",
    "tags": [
      {
        "tag": "103107"
      }
    ],
    "address": "7-9 rue d'Enfer 35600 REDON",
    "city": "REDON",
    "postal": "35"
  },
  {
    "lat": "48.46769",
    "lng": "-4.6409357",
    "id": 4852932,
    "name": "LES FROMAGES DE BACCHUS",
    "tagsvalue": "103111",
    "tags": [
      {
        "tag": "103111"
      }
    ],
    "address": "2C route d'Argeton 29290 LANRIVOARE",
    "city": "LANRIVOARE",
    "postal": "29"
  },
  {
    "lat": "46.669582",
    "lng": "-1.423678",
    "id": 4852933,
    "name": "LE PIMENT BLEU",
    "tagsvalue": "103121",
    "tags": [
      {
        "tag": "103121"
      }
    ],
    "address": "Hallexo, carreau des Halles 85000 LA ROCHE SUR YON",
    "city": "LA ROCHE SUR YON",
    "postal": "85"
  },
  {
    "lat": "48.5428972",
    "lng": "-4.6669819",
    "id": 4852934,
    "name": "LES CAVES ADAM",
    "tagsvalue": "103123",
    "tags": [
      {
        "tag": "103123"
      }
    ],
    "address": "2 avenue de Portsall, 29830 PLOUDALMEZAU",
    "city": "PLOUDALMEZEAU",
    "postal": "29"
  },
  {
    "lat": "47.4669943",
    "lng": "-0.5565928",
    "id": 4852935,
    "name": "QUAI DES OLIVIERS",
    "tagsvalue": "103147",
    "tags": [
      {
        "tag": "103147"
      }
    ],
    "address": "8 rue Talot 49100 ANGERS",
    "city": "ANGERS",
    "postal": "49"
  },
  {
    "lat": "48.5496706",
    "lng": "-1.75647",
    "id": 4852936,
    "name": "COTE VIGNOBLE",
    "tagsvalue": "103182",
    "tags": [
      {
        "tag": "103182"
      }
    ],
    "address": "22 place Toullier 35120 DOL DE BRETAGNE",
    "city": "DOL DE BRETAGNE",
    "postal": "35"
  },
  {
    "lat": "48.348183",
    "lng": "-1.1930647",
    "id": 4852937,
    "name": "L'ECHOPPE ARTISAN GOURMAND",
    "tagsvalue": "103248",
    "tags": [
      {
        "tag": "103248"
      }
    ],
    "address": "Forum de la Gare 35300 FOUGERES",
    "city": "FOUGERES",
    "postal": "35"
  },
  {
    "lat": "48.7793205",
    "lng": "-3.0463184",
    "id": 4852938,
    "name": "CELLIER DU GOELO",
    "tagsvalue": "103255",
    "tags": [
      {
        "tag": "103255"
      }
    ],
    "address": "2 rue de l'Eglise 22500 PAIMPOL",
    "city": "PAIMPOL",
    "postal": "22"
  },
  {
    "lat": "49.2855326",
    "lng": "-0.0972255",
    "id": 4852939,
    "name": "DUPONT AVEC UN THE",
    "tagsvalue": "103273",
    "tags": [
      {
        "tag": "103273"
      }
    ],
    "address": "42 rue Gaston Manneville 14160 DIVES SUR MER",
    "city": "DIVES SUR MER",
    "postal": "14"
  },
  {
    "lat": "47.8744741",
    "lng": "-4.1221211",
    "id": 4852940,
    "name": "EPICERIE DU PORT",
    "tagsvalue": "103281",
    "tags": [
      {
        "tag": "103281"
      }
    ],
    "address": "21 rue Menez 29120 COMBRIT",
    "city": "COMBRIT",
    "postal": "29"
  },
  {
    "lat": "48.6403389",
    "lng": "-3.722949",
    "id": 4852941,
    "name": "O PANIER DES SAVEURS",
    "tagsvalue": "103297",
    "tags": [
      {
        "tag": "103297"
      }
    ],
    "address": "ZI de Kerangoff 29620 LANMEUR",
    "city": "LANMEUR",
    "postal": "29"
  },
  {
    "lat": "46.9998724",
    "lng": "-2.2443966",
    "id": 4852942,
    "name": "TELLE MERE TEL FILS L'EPICIER",
    "tagsvalue": "103303",
    "tags": [
      {
        "tag": "103303"
      }
    ],
    "address": "1 rue du Marché 85330 NOIRMOUTIER EN L'ILE",
    "city": "NOIRMOUTIER EN L'ILE",
    "postal": "85"
  },
  {
    "lat": "45.690569",
    "lng": "-1.055473",
    "id": 4852943,
    "name": "LES CAFES DE GUILLAUMINE",
    "tagsvalue": "103304",
    "tags": [
      {
        "tag": "103304"
      }
    ],
    "address": "13 rue du Centre 17920 BREUILLET",
    "city": "BREUILLET",
    "postal": "17"
  },
  {
    "lat": "47.5006379",
    "lng": "-2.8383429",
    "id": 4852944,
    "name": "CAVE DE RHUYS",
    "tagsvalue": "103311",
    "tags": [
      {
        "tag": "103311"
      }
    ],
    "address": "25 rue du Général de Gaulle 56730 ST GILDAS DE RHUYS",
    "city": "ST GILDAS DE RHUYS",
    "postal": "56"
  },
  {
    "lat": "47.6755702",
    "lng": "-3.1707667",
    "id": 4852945,
    "name": "CURIOSI'THE",
    "tagsvalue": "103317",
    "tags": [
      {
        "tag": "103317"
      }
    ],
    "address": "29 rue du Général de Gaulle 56550 BELZ",
    "city": "BELZ",
    "postal": "56"
  },
  {
    "lat": "47.230742",
    "lng": "-1.555808",
    "id": 4852946,
    "name": "GARDE MANGER",
    "tagsvalue": "103319",
    "tags": [
      {
        "tag": "103319"
      }
    ],
    "address": "1 rue Sylvain Paris 44000 NANTES",
    "city": "NANTES",
    "postal": "44"
  },
  {
    "lat": "47.8696516",
    "lng": "-3.8922696",
    "id": 4852947,
    "name": "LA CAVE DU MOROS",
    "tagsvalue": "103336",
    "tags": [
      {
        "tag": "103336"
      }
    ],
    "address": "rue Joseph Bigot Ecoparc Meridien 29900 CONCARNEAU",
    "city": "CONCARNEAU",
    "postal": "29"
  },
  {
    "lat": "47.217453",
    "lng": "-1.551855",
    "id": 4852948,
    "name": "CREMERIE DES CARMELITES",
    "tagsvalue": "103354",
    "tags": [
      {
        "tag": "103354"
      }
    ],
    "address": "15 rue de Verdun 44000 NANTES",
    "city": "NANTES",
    "postal": "44"
  },
  {
    "lat": "47.2489644",
    "lng": "-1.4879042",
    "id": 4852949,
    "name": "CREMERIE DES CARMELITES",
    "tagsvalue": "103354",
    "tags": [
      {
        "tag": "103354"
      }
    ],
    "address": "34 rue du President Coty 44980 STE LUCE SUR LOIRE",
    "city": "STE LUCE SUR LOIRE",
    "postal": "44"
  },
  {
    "lat": "49.6401777",
    "lng": "-1.6269632",
    "id": 4852950,
    "name": "LE TRIPORTEUR GOURMAND",
    "tagsvalue": "103361",
    "tags": [
      {
        "tag": "103361"
      }
    ],
    "address": "15 rue Christine 50100 CHERBOURG",
    "city": "CHERBOURG",
    "postal": "50"
  },
  {
    "lat": "48.109889",
    "lng": "-1.6893826",
    "id": 4852951,
    "name": "LA CAVE DES GRANDS GAMINS",
    "tagsvalue": "103374",
    "tags": [
      {
        "tag": "103374"
      }
    ],
    "address": "36 Mail François Mitterand 35000 RENNES",
    "city": "RENNES",
    "postal": "35"
  },
  {
    "lat": "48.2359566",
    "lng": "-3.3169139",
    "id": 4852952,
    "name": "AUX 4 SAISONS",
    "tagsvalue": "103377",
    "tags": [
      {
        "tag": "103377"
      }
    ],
    "address": "15 place de la République 22110 ROSTRENEN",
    "city": "ROSTRENEN",
    "postal": "22"
  },
  {
    "lat": "48.0248387",
    "lng": "-1.7481288",
    "id": 4852953,
    "name": "SAVEURS DE SAISONS",
    "tagsvalue": "103384",
    "tags": [
      {
        "tag": "103384"
      }
    ],
    "address": "6 rue Joseph Jan 35170 BRUZ",
    "city": "BRUZ",
    "postal": "35"
  },
  {
    "lat": "48.0299311",
    "lng": "-1.7596557",
    "id": 4852954,
    "name": "SAVEURS DE SAISONS",
    "tagsvalue": "103384",
    "tags": [
      {
        "tag": "103384"
      }
    ],
    "address": "1 place Vert Buisson 35170 BRUZ",
    "city": "BRUZ",
    "postal": "35"
  },
  {
    "lat": "48.2022797",
    "lng": "-1.729657",
    "id": 4852955,
    "name": "MONBANA",
    "tagsvalue": "103387",
    "tags": [
      {
        "tag": "103387"
      }
    ],
    "address": "Zone Commerciale Cap Malo 35520 LA MEZIERE",
    "city": "LA MEZIERE",
    "postal": "35"
  },
  {
    "lat": "47.2695124",
    "lng": "-2.3440512",
    "id": 4852956,
    "name": "LE JARDIN DE MON GRAND-PERE",
    "tagsvalue": "103427",
    "tags": [
      {
        "tag": "103427"
      }
    ],
    "address": "136 avenue de Mazy 44380 PORNICHET",
    "city": "PORNICHET",
    "postal": "44"
  },
  {
    "lat": "47.4823717",
    "lng": "-2.159754",
    "id": 4852957,
    "name": "LA FROMAGERIE",
    "tagsvalue": "103435",
    "tags": [
      {
        "tag": "103435"
      }
    ],
    "address": "3 rue du château \n44780 MISSILAC",
    "city": "MISSILLAC",
    "postal": "44"
  },
  {
    "lat": "47.6694918",
    "lng": "-2.9601877",
    "id": 4852958,
    "name": "LA CAVE DE KERFONTAINE",
    "tagsvalue": "103437",
    "tags": [
      {
        "tag": "103437"
      }
    ],
    "address": "14 rue Andre Ampère Zone Commerciale de Kerfontaine 56400 PLUNERET",
    "city": "PLUNERET",
    "postal": "56"
  },
  {
    "lat": "47.2955536",
    "lng": "-2.5132477",
    "id": 4852959,
    "name": "MAISON LA GOULUE",
    "tagsvalue": "103477",
    "tags": [
      {
        "tag": "103477"
      }
    ],
    "address": "1 Quai de l'Aiguillon 44490 LE CROISIC",
    "city": "LE CROISIC",
    "postal": "44"
  },
  {
    "lat": "48.0048553",
    "lng": "0.1975883",
    "id": 4852960,
    "name": "MAISON REIGNIER",
    "tagsvalue": "103480",
    "tags": [
      {
        "tag": "103480"
      }
    ],
    "address": "19 rue de Bolton 72000 LE MANS",
    "city": "LE MANS",
    "postal": "72"
  },
  {
    "lat": "48.1256306",
    "lng": "-1.8163756",
    "id": 4852961,
    "name": "LE TERROIR D'ANTAN",
    "tagsvalue": "103489",
    "tags": [
      {
        "tag": "103489"
      }
    ],
    "address": "13 rue de Rennes, 35590 L'HERMITAGE",
    "city": "L'HERMITAGE",
    "postal": "35"
  },
  {
    "lat": "48.6329825",
    "lng": "-2.0538557",
    "id": 4852962,
    "name": "MERCI MONSIEUR",
    "tagsvalue": "103546",
    "tags": [
      {
        "tag": "103546"
      }
    ],
    "address": "28 rue du Maréchal Leclerc 35800 DINARD",
    "city": "DINARD",
    "postal": "35"
  },
  {
    "lat": "46.4959718",
    "lng": "-1.7964971",
    "id": 4852963,
    "name": " KAPERO",
    "tagsvalue": "103548",
    "tags": [
      {
        "tag": "103548"
      }
    ],
    "address": "17 Quai George V La Chaume 85100 LES SABLES D'OLONNE",
    "city": "LES SABLES D'OLONNE",
    "postal": "85"
  },
  {
    "lat": "47.9202707",
    "lng": "-1.8600431",
    "id": 4852964,
    "name": "LA RITOURNELLE",
    "tagsvalue": "103553",
    "tags": [
      {
        "tag": "103553"
      }
    ],
    "address": "2 rue des Forgets 35580 GUIGNEN",
    "city": "GUIGNEN",
    "postal": "35"
  },
  {
    "lat": "48.3228432",
    "lng": "0.821161",
    "id": 4852965,
    "name": "TOUT FRAIS TOUT FRUITS",
    "tagsvalue": "103579",
    "tags": [
      {
        "tag": "103579"
      }
    ],
    "address": "1 place Saint Pôl 28400 NOGENT LE ROTROU",
    "city": "CONDE SUR SARTHE",
    "postal": "61"
  },
  {
    "lat": "47.2125782",
    "lng": "-0.9846608",
    "id": 4852966,
    "name": "LES GOUTS ET LES COULEURS",
    "tagsvalue": "103593",
    "tags": [
      {
        "tag": "103593"
      }
    ],
    "address": "220 rue Jules Verne 49600 BEAUPREAU",
    "city": "BEAUPREAU",
    "postal": "49"
  },
  {
    "lat": "47.256915",
    "lng": "-1.6474519",
    "id": 4852967,
    "name": "PRIVILEGE GOURMAND",
    "tagsvalue": "103594",
    "tags": [
      {
        "tag": "103594"
      }
    ],
    "address": "4 avenue Louis Renault 44800 ST BERBLAIN",
    "city": "ST HERBLAIN",
    "postal": "44"
  },
  {
    "lat": "47.5213977",
    "lng": "-1.6168054",
    "id": 4852968,
    "name": "CHARCUTERIE COSSARD",
    "tagsvalue": "103596",
    "tags": [
      {
        "tag": "103596"
      }
    ],
    "address": "8 place de l'Église 44390 PUCEUL",
    "city": "PUCEUL",
    "postal": "44"
  },
  {
    "lat": "48.200735",
    "lng": "-2.0459497",
    "id": 4852969,
    "name": "LE PANIER DE LILI",
    "tagsvalue": "103609",
    "tags": [
      {
        "tag": "103609"
      }
    ],
    "address": "1 rue de Romillé 35360 MONTAUBAN-DE-BRETAGNE",
    "city": "MONTAUBAN",
    "postal": "35"
  },
  {
    "lat": "47.4027827",
    "lng": "-0.4784551",
    "id": 4852970,
    "name": "DELICAT TESS",
    "tagsvalue": "103611",
    "tags": [
      {
        "tag": "103611"
      }
    ],
    "address": "2 Espace Chambretault \n49610 JUIGNE-SUR-LOIRE",
    "city": "JUIGNE SUR LOIRE",
    "postal": "49"
  },
  {
    "lat": "49.2847759",
    "lng": "-0.1457965",
    "id": 4852971,
    "name": "LA JOUFFLUE",
    "tagsvalue": "103663",
    "tags": [
      {
        "tag": "103663"
      }
    ],
    "address": "30 rue René Coty 14390 VARAVILLE",
    "city": "VARAVILLE",
    "postal": "14"
  },
  {
    "lat": "47.1050586",
    "lng": "-2.0658028",
    "id": 4852972,
    "name": "CHEZ LE GAULOIS",
    "tagsvalue": "103674",
    "tags": [
      {
        "tag": "103674"
      }
    ],
    "address": "86 rue de la Chaussée 44210 PORNIC",
    "city": "PORNIC",
    "postal": "44"
  },
  {
    "lat": "46.7249881",
    "lng": "-2.3495819",
    "id": 4852973,
    "name": "YEU ATLANTIC",
    "tagsvalue": "103681",
    "tags": [
      {
        "tag": "103681"
      }
    ],
    "address": "3 Quai Carnot 85350 L'ILE D'YEU",
    "city": "L'ILE D'YEU",
    "postal": "85"
  },
  {
    "lat": "48.2015768",
    "lng": "-1.7355842",
    "id": 4852974,
    "name": "LE RELAIS FERMIER",
    "tagsvalue": "103694",
    "tags": [
      {
        "tag": "103694"
      }
    ],
    "address": "Zone d'Activités de la Montgervalaise 1 35520 LA MEZIERE",
    "city": "LA MEZIERE",
    "postal": "35"
  },
  {
    "lat": "46.496421",
    "lng": "-1.784823",
    "id": 4852975,
    "name": "DELICES LAMARQUE SABLES D'OLONNE",
    "tagsvalue": "103697",
    "tags": [
      {
        "tag": "103697"
      }
    ],
    "address": "21 rue de l'Hotel de Ville 85100 LES SABLES D'OLONNE",
    "city": "LES SABLES D'OLONNE",
    "postal": "85"
  },
  {
    "lat": "48.8179708",
    "lng": "-3.4707116",
    "id": 4852976,
    "name": "L'ATELIER FERMIER",
    "tagsvalue": "103725",
    "tags": [
      {
        "tag": "103725"
      }
    ],
    "address": "127 boulevard de la Corniche 22700 PERROS GUIREC",
    "city": "PERROS GUIREC",
    "postal": "22"
  },
  {
    "lat": "45.9336157",
    "lng": "-0.481706",
    "id": 4852977,
    "name": "LE MARCHE D'AURELIE",
    "tagsvalue": "103729",
    "tags": [
      {
        "tag": "103729"
      }
    ],
    "address": "rue des Justices 17400 ST JULIEN DE L'ESCAP",
    "city": "ST JULIEN DE L'ESCAP",
    "postal": "17"
  },
  {
    "lat": "48.4325221",
    "lng": "-4.6230141",
    "id": 4852978,
    "name": "LE CORPS DE GARDE",
    "tagsvalue": "103731",
    "tags": [
      {
        "tag": "103731"
      }
    ],
    "address": "8 rue Saint Mathieu 29290 ST RENAN",
    "city": "ST RENAN",
    "postal": "29"
  },
  {
    "lat": "46.2047236",
    "lng": "-1.3672044",
    "id": 4852979,
    "name": "L'EPICERIE DE L'ILE",
    "tagsvalue": "103736",
    "tags": [
      {
        "tag": "103736"
      }
    ],
    "address": "3 rue Baron de Chantal 17410 ST MARTIN DE RE",
    "city": "ST MARTIN DE RE",
    "postal": "17"
  },
  {
    "lat": "47.220002",
    "lng": "-1.549598",
    "id": 4852980,
    "name": "LA CAVE DES CARMELITES",
    "tagsvalue": "103740",
    "tags": [
      {
        "tag": "103740"
      }
    ],
    "address": "94 rue Maréchal Joffre 44000 NANTES",
    "city": "NANTES",
    "postal": "44"
  },
  {
    "lat": "48.658789",
    "lng": "-1.9851189",
    "id": 4852981,
    "name": "LE JUS D'OCTOBRE",
    "tagsvalue": "103741",
    "tags": [
      {
        "tag": "103741"
      }
    ],
    "address": "12 boulevard de Rochebonne 35400 ST MALO",
    "city": "ST MALO",
    "postal": "35"
  },
  {
    "lat": "48.1543576",
    "lng": "-1.5803795",
    "id": 4852982,
    "name": "LE PANIER DES SAVEURS",
    "tagsvalue": "103746",
    "tags": [
      {
        "tag": "103746"
      }
    ],
    "address": "10 A rue Beaumanoir 35235 THORIGNE FOUILLARD",
    "city": "THORIGNE FOUILLARD",
    "postal": "35"
  },
  {
    "lat": "49.2212186",
    "lng": "-0.3663831",
    "id": 4852983,
    "name": "LE TORREFACTEUR",
    "tagsvalue": "103759",
    "tags": [
      {
        "tag": "103759"
      }
    ],
    "address": "2 rue Hubertine Auclert 14610 EPRON",
    "city": "EPRON",
    "postal": "14"
  },
  {
    "lat": "47.9324143",
    "lng": "-2.4002177",
    "id": 4852984,
    "name": "SECRETS DE FROMAGER",
    "tagsvalue": "103770",
    "tags": [
      {
        "tag": "103770"
      }
    ],
    "address": "3 rue de la Gare 56800 PLOERMEL",
    "city": "PLOERMEL",
    "postal": "56"
  },
  {
    "lat": "46.7255567",
    "lng": "-2.3502553",
    "id": 4852985,
    "name": "BY MELIANA",
    "tagsvalue": "103789",
    "tags": [
      {
        "tag": "103789"
      }
    ],
    "address": "7 rue de la République 85350 L'ILE D'YEU",
    "city": "L'ILE D'YEU",
    "postal": "85"
  },
  {
    "lat": "49.6474463",
    "lng": "-1.6479969",
    "id": 4852986,
    "name": "FLEURS ET SAVEURS",
    "tagsvalue": "103805",
    "tags": [
      {
        "tag": "103805"
      }
    ],
    "address": "111 rue Gambetta 50120 EQUEURDREVILLE HAINNEVILLE",
    "city": "EQUEURDREVILLE HAINNEVILL",
    "postal": "50"
  },
  {
    "lat": "48.4535753",
    "lng": "-2.045088",
    "id": 4852987,
    "name": "PALAIS DES EPICES",
    "tagsvalue": "103807",
    "tags": [
      {
        "tag": "103807"
      }
    ],
    "address": "Les Halles de la Cohue, rue de la Ferronnerie 22100 DINAN",
    "city": "NOTRE DAME D'OE",
    "postal": "37"
  },
  {
    "lat": "48.7437723",
    "lng": "-0.5686626",
    "id": 4852988,
    "name": "LA CAVE ST VINCENT",
    "tagsvalue": "103809",
    "tags": [
      {
        "tag": "103809"
      }
    ],
    "address": "131 rue de Domfront 61100 FLERS",
    "city": "FLERS",
    "postal": "61"
  },
  {
    "lat": "47.7479962",
    "lng": "-3.3621498",
    "id": 4852989,
    "name": "BOUTIQUE MOKA",
    "tagsvalue": "103820",
    "tags": [
      {
        "tag": "103820"
      }
    ],
    "address": "3 rue de la Patrie 56100 LORIENT",
    "city": "LORIENT",
    "postal": "56"
  },
  {
    "lat": "47.9135782",
    "lng": "-1.3786812",
    "id": 4852990,
    "name": " CAVE DE LA ROCHE AUX FEES",
    "tagsvalue": "103854",
    "tags": [
      {
        "tag": "103854"
      }
    ],
    "address": "13 place Saint-Pierre 35240 RETIERS",
    "city": "RETIERS",
    "postal": "35"
  },
  {
    "lat": "47.6570962",
    "lng": "-2.7579309",
    "id": 4852991,
    "name": "DELICES LAMARQUE VANNES",
    "tagsvalue": "103855",
    "tags": [
      {
        "tag": "103855"
      }
    ],
    "address": "15 rue des Halles 56000 VANNES",
    "city": "VANNES",
    "postal": "56"
  },
  {
    "lat": "48.8107668",
    "lng": "-3.2957067",
    "id": 4852992,
    "name": "L OTHENTIK",
    "tagsvalue": "103862",
    "tags": [
      {
        "tag": "103862"
      }
    ],
    "address": "20 rue du Général de Gaulle\n 22710 PENVENAN",
    "city": "PENVENAN",
    "postal": "22"
  },
  {
    "lat": "47.2143194",
    "lng": "-1.5649661",
    "id": 4852993,
    "name": "LE FRUITIER RACINE",
    "tagsvalue": "190032",
    "tags": [
      {
        "tag": "190032"
      }
    ],
    "address": "22 rue Racine 44000 NANTES",
    "city": "NANTES",
    "postal": "44"
  },
  {
    "lat": "45.9583513",
    "lng": "5.3581378",
    "id": 4852994,
    "name": "LE GARDE MANGER",
    "tagsvalue": "101621",
    "tags": [
      {
        "tag": "101621"
      }
    ],
    "address": "9 rue Aristide Briand 01500 AMBERIEU EN BUGEY",
    "city": "AMBERIEU EN BUGEY",
    "postal": "1"
  },
  {
    "lat": "47.3211554",
    "lng": "5.0427566",
    "id": 4852995,
    "name": "GRAIN DE CASSIS",
    "tagsvalue": "102227",
    "tags": [
      {
        "tag": "102227"
      }
    ],
    "address": "14 rue Rameau 21000 DIJON",
    "city": "DIJON",
    "postal": "21"
  },
  {
    "lat": "46.781622",
    "lng": "4.857985",
    "id": 4852996,
    "name": "LES TROIS GRENIERS",
    "tagsvalue": "102268",
    "tags": [
      {
        "tag": "102268"
      }
    ],
    "address": "7 rue St Vincent 71100 CHALON SUR SAONE",
    "city": "CHALON SUR SAONE",
    "postal": "71"
  },
  {
    "lat": "47.323006",
    "lng": "5.038812",
    "id": 4852997,
    "name": "LE CHALET COMTOIS",
    "tagsvalue": "102328",
    "tags": [
      {
        "tag": "102328"
      }
    ],
    "address": "28 rue Muzette 21000 DIJON",
    "city": "DIJON",
    "postal": "21"
  },
  {
    "lat": "47.3264055",
    "lng": "5.0282106",
    "id": 4852998,
    "name": "EPIACAR EPICERIE A CARO",
    "tagsvalue": "103186",
    "tags": [
      {
        "tag": "103186"
      }
    ],
    "address": "9 Passage Thurot 21000 DIJON",
    "city": "DIJON",
    "postal": "21"
  },
  {
    "lat": "45.9666568",
    "lng": "5.3549347",
    "id": 4852999,
    "name": "LA FROMAGERIE DE MARION",
    "tagsvalue": "103359",
    "tags": [
      {
        "tag": "103359"
      }
    ],
    "address": "112 rue Alexandre Berard 01500 AMBERIEU EN BUGEY",
    "city": "AMBERIEU EN BUGEY",
    "postal": "1"
  },
  {
    "lat": "47.0227998",
    "lng": "4.8385681",
    "id": 4853000,
    "name": "TAST FROMAGES",
    "tagsvalue": "103363",
    "tags": [
      {
        "tag": "103363"
      }
    ],
    "address": "7 place Carnot 21200 BEAUNE",
    "city": "BEAUNE",
    "postal": "21"
  },
  {
    "lat": "46.6292323",
    "lng": "5.2204476",
    "id": 4853001,
    "name": "MARIE PAULE ET PATRICK LIBERGE",
    "tagsvalue": "103376",
    "tags": [
      {
        "tag": "103376"
      }
    ],
    "address": "4 Grande rue 71500 LOUHANS",
    "city": "LOUHANS",
    "postal": "71"
  },
  {
    "lat": "46.2023786",
    "lng": "5.2246876",
    "id": 4853002,
    "name": "FABIEN PICARD",
    "tagsvalue": "103379",
    "tags": [
      {
        "tag": "103379"
      }
    ],
    "address": "8 avenue Alsace Lorraine 01000 BOURG EN BRESSE",
    "city": "BOURG EN BRESSE",
    "postal": "1"
  },
  {
    "lat": "46.2709745",
    "lng": "5.3674266",
    "id": 4853003,
    "name": "LA BOUTIQUE A FROMAGES",
    "tagsvalue": "103380",
    "tags": [
      {
        "tag": "103380"
      }
    ],
    "address": "21 place du Champ de Foire 01370 TREFFORT CUISIAT",
    "city": "TREFFORT CUISIAT",
    "postal": "1"
  },
  {
    "lat": "46.9047954",
    "lng": "6.3518812",
    "id": 4853004,
    "name": "L'EPICERIE DU FAUBOURG",
    "tagsvalue": "103400",
    "tags": [
      {
        "tag": "103400"
      }
    ],
    "address": "3 rue du Faubourg Saint Pierre 25300 PONTARLIER",
    "city": "PONTARLIER",
    "postal": "25"
  },
  {
    "lat": "46.119599",
    "lng": "4.9562259",
    "id": 4853005,
    "name": "LA PAPILLOTHEQUE DES FROMAGES",
    "tagsvalue": "103402",
    "tags": [
      {
        "tag": "103402"
      }
    ],
    "address": "36 rue Commerson 01400 CHATILLON SUR CHALARONNE",
    "city": "CHATILLON SUR CHALARONNE",
    "postal": "1"
  },